{
"type": "FeatureCollection",
"name": "points",
"crs": { "type": "name", "properties": { "name": "urn:ogc:def:crs:OGC:1.3:CRS84" } },
"features": [
{ "type": "Feature", "properties": { "MUN_ID": "MU_1287", "MRC_ID": "MRC_44", "nomcartrou": "Hereford", "mus_nm_mun": "Saint-Herménégilde" }, "geometry": { "type": "Point", "coordinates": [ -71.561345000157459, 45.013801000702955 ] } },
{ "type": "Feature", "properties": { "MUN_ID": "MU_1289", "MRC_ID": "MRC_44", "nomcartrou": "Stanhope", "mus_nm_mun": "Coaticook" }, "geometry": { "type": "Point", "coordinates": [ -71.79864600080667, 45.011850001100591 ] } },
{ "type": "Feature", "properties": { "MUN_ID": "MU_1296", "MRC_ID": "MRC_45", "nomcartrou": "Rock Island", "mus_nm_mun": "Stanstead" }, "geometry": { "type": "Point", "coordinates": [ -72.09854799981342, 45.007663001111446 ] } },
{ "type": "Feature", "properties": { "MUN_ID": "MU_1296", "MRC_ID": "MRC_45", "nomcartrou": "Beebe", "mus_nm_mun": "Stanstead" }, "geometry": { "type": "Point", "coordinates": [ -72.145567999916949, 45.011493000729146 ] } },
{ "type": "Feature", "properties": { "MUN_ID": "MU_1296", "MRC_ID": "MRC_45", "nomcartrou": "Stanstead", "mus_nm_mun": "Stanstead" }, "geometry": { "type": "Point", "coordinates": [ -72.091858000032829, 45.018541002019937 ] } },
{ "type": "Feature", "properties": { "MUN_ID": "MU_1297", "MRC_ID": "MRC_45", "nomcartrou": "Graniteville", "mus_nm_mun": "Ogden" }, "geometry": { "type": "Point", "coordinates": [ -72.185637999332357, 45.019389001555844 ] } },
{ "type": "Feature", "properties": { "MUN_ID": "MU_1289", "MRC_ID": "MRC_44", "nomcartrou": "Baldwin Mills", "mus_nm_mun": "Coaticook" }, "geometry": { "type": "Point", "coordinates": [ -71.908101999926913, 45.036553000835418 ] } },
{ "type": "Feature", "properties": { "MUN_ID": "MU_1299", "MRC_ID": "MRC_45", "nomcartrou": "Highwater", "mus_nm_mun": "Potton" }, "geometry": { "type": "Point", "coordinates": [ -72.429179999100754, 45.025369000810684 ] } },
{ "type": "Feature", "properties": { "MUN_ID": "MU_1288", "MRC_ID": "MRC_44", "nomcartrou": "Dixville", "mus_nm_mun": "Dixville" }, "geometry": { "type": "Point", "coordinates": [ -71.769773999597589, 45.067150000091779 ] } },
{ "type": "Feature", "properties": { "MUN_ID": "MU_1313", "MRC_ID": "MRC_46", "nomcartrou": "Abercorn", "mus_nm_mun": "Abercorn" }, "geometry": { "type": "Point", "coordinates": [ -72.658306000028318, 45.035120001248316 ] } },
{ "type": "Feature", "properties": { "MUN_ID": "MU_1322", "MRC_ID": "MRC_46", "nomcartrou": "Glen Sutton", "mus_nm_mun": "Sutton" }, "geometry": { "type": "Point", "coordinates": [ -72.546161000644972, 45.040793001223086 ] } },
{ "type": "Feature", "properties": { "MUN_ID": "MU_1286", "MRC_ID": "MRC_44", "nomcartrou": "East Hereford", "mus_nm_mun": "East Hereford" }, "geometry": { "type": "Point", "coordinates": [ -71.501990000391871, 45.07800800121592 ] } },
{ "type": "Feature", "properties": { "MUN_ID": "MU_1297", "MRC_ID": "MRC_45", "nomcartrou": "Ogden (Tomifobia)", "mus_nm_mun": "Ogden" }, "geometry": { "type": "Point", "coordinates": [ -72.132495001183003, 45.059278000238308 ] } },
{ "type": "Feature", "properties": { "MUN_ID": "MU_1299", "MRC_ID": "MRC_45", "nomcartrou": "Potton (Mansonville)", "mus_nm_mun": "Potton" }, "geometry": { "type": "Point", "coordinates": [ -72.392033000699641, 45.04976600046647 ] } },
{ "type": "Feature", "properties": { "MUN_ID": "MU_1315", "MRC_ID": "MRC_46", "nomcartrou": "Saint-Armand", "mus_nm_mun": "Saint-Armand" }, "geometry": { "type": "Point", "coordinates": [ -73.042715999521562, 45.032582000520854 ] } },
{ "type": "Feature", "properties": { "MUN_ID": "MU_1315", "MRC_ID": "MRC_46", "nomcartrou": "Pigeon Hill", "mus_nm_mun": "Saint-Armand" }, "geometry": { "type": "Point", "coordinates": [ -72.938396999672946, 45.042337000736872 ] } },
{ "type": "Feature", "properties": { "MUN_ID": "MU_1315", "MRC_ID": "MRC_46", "nomcartrou": "Philipsburg", "mus_nm_mun": "Saint-Armand" }, "geometry": { "type": "Point", "coordinates": [ -73.074123001063626, 45.039092000405702 ] } },
{ "type": "Feature", "properties": { "MUN_ID": "MU_1314", "MRC_ID": "MRC_46", "nomcartrou": "Frelighsburg", "mus_nm_mun": "Frelighsburg" }, "geometry": { "type": "Point", "coordinates": [ -72.838948999286927, 45.054408000668815 ] } },
{ "type": "Feature", "properties": { "MUN_ID": "MU_1291", "MRC_ID": "MRC_44", "nomcartrou": "Stanstead-Est", "mus_nm_mun": "Stanstead-Est" }, "geometry": { "type": "Point", "coordinates": [ -72.057536000134377, 45.088146000593305 ] } },
{ "type": "Feature", "properties": { "MUN_ID": "MU_1287", "MRC_ID": "MRC_44", "nomcartrou": "Saint-Herménégilde", "mus_nm_mun": "Saint-Herménégilde" }, "geometry": { "type": "Point", "coordinates": [ -71.672461999985487, 45.105589000323413 ] } },
{ "type": "Feature", "properties": { "MUN_ID": "MU_561", "MRC_ID": "MRC_69", "nomcartrou": "Covey Hill", "mus_nm_mun": "Havelock" }, "geometry": { "type": "Point", "coordinates": [ -73.757135000708644, 45.019536001111135 ] } },
{ "type": "Feature", "properties": { "MUN_ID": "MU_568", "MRC_ID": "MRC_69", "nomcartrou": "Trout River", "mus_nm_mun": "Elgin" }, "geometry": { "type": "Point", "coordinates": [ -74.308341001060654, 44.992084000207051 ] } },
{ "type": "Feature", "properties": { "MUN_ID": "MU_1299", "MRC_ID": "MRC_45", "nomcartrou": "Vale Perkins", "mus_nm_mun": "Potton" }, "geometry": { "type": "Point", "coordinates": [ -72.304228000395369, 45.088308000946867 ] } },
{ "type": "Feature", "properties": { "MUN_ID": "MU_1290", "MRC_ID": "MRC_44", "nomcartrou": "Barnston-Ouest (Way's Mills)", "mus_nm_mun": "Barnston-Ouest" }, "geometry": { "type": "Point", "coordinates": [ -71.976928000118576, 45.102634000448319 ] } },
{ "type": "Feature", "properties": { "MUN_ID": "MU_1289", "MRC_ID": "MRC_44", "nomcartrou": "Barnston", "mus_nm_mun": "Coaticook" }, "geometry": { "type": "Point", "coordinates": [ -71.883408999706759, 45.107126001488652 ] } },
{ "type": "Feature", "properties": { "MUN_ID": "MU_567", "MRC_ID": "MRC_69", "nomcartrou": "Powerscourt", "mus_nm_mun": "Hinchinbrooke" }, "geometry": { "type": "Point", "coordinates": [ -74.15947099946446, 45.007072000258617 ] } },
{ "type": "Feature", "properties": { "MUN_ID": "MU_1285", "MRC_ID": "MRC_44", "nomcartrou": "Saint-Venant-de-Paquette", "mus_nm_mun": "Saint-Venant-de-Paquette" }, "geometry": { "type": "Point", "coordinates": [ -71.460490999467709, 45.125034000436592 ] } },
{ "type": "Feature", "properties": { "MUN_ID": "MU_567", "MRC_ID": "MRC_69", "nomcartrou": "Rockburn", "mus_nm_mun": "Hinchinbrooke" }, "geometry": { "type": "Point", "coordinates": [ -74.00649000000422, 45.02259900118537 ] } },
{ "type": "Feature", "properties": { "MUN_ID": "MU_551", "MRC_ID": "MRC_68", "nomcartrou": "Hemmingford", "mus_nm_mun": "Hemmingford" }, "geometry": { "type": "Point", "coordinates": [ -73.588041001439606, 45.045726000430989 ] } },
{ "type": "Feature", "properties": { "MUN_ID": "MU_562", "MRC_ID": "MRC_69", "nomcartrou": "Franklin", "mus_nm_mun": "Franklin" }, "geometry": { "type": "Point", "coordinates": [ -73.922998000164995, 45.029440000636235 ] } },
{ "type": "Feature", "properties": { "MUN_ID": "MU_422", "MRC_ID": "MRC_56", "nomcartrou": "Clarenceville", "mus_nm_mun": "Clarenceville" }, "geometry": { "type": "Point", "coordinates": [ -73.247356000770907, 45.063584000137638 ] } },
{ "type": "Feature", "properties": { "MUN_ID": "MU_573", "MRC_ID": "MRC_69", "nomcartrou": "Dundee", "mus_nm_mun": "Dundee" }, "geometry": { "type": "Point", "coordinates": [ -74.508033999855442, 44.998737000741841 ] } },
{ "type": "Feature", "properties": { "MUN_ID": "MU_423", "MRC_ID": "MRC_56", "nomcartrou": "Noyan", "mus_nm_mun": "Noyan" }, "geometry": { "type": "Point", "coordinates": [ -73.298993000888942, 45.063666001865215 ] } },
{ "type": "Feature", "properties": { "MUN_ID": "MU_567", "MRC_ID": "MRC_69", "nomcartrou": "Herdman", "mus_nm_mun": "Hinchinbrooke" }, "geometry": { "type": "Point", "coordinates": [ -74.093854998974066, 45.026830000706589 ] } },
{ "type": "Feature", "properties": { "MUN_ID": "MU_573", "MRC_ID": "MRC_69", "nomcartrou": "Sainte-Agnès-de-Dundee", "mus_nm_mun": "Dundee" }, "geometry": { "type": "Point", "coordinates": [ -74.401105999796442, 45.009515000885152 ] } },
{ "type": "Feature", "properties": { "MUN_ID": "MU_561", "MRC_ID": "MRC_69", "nomcartrou": "Havelock", "mus_nm_mun": "Havelock" }, "geometry": { "type": "Point", "coordinates": [ -73.758113999695709, 45.04553400080686 ] } },
{ "type": "Feature", "properties": { "MUN_ID": "MU_1298", "MRC_ID": "MRC_45", "nomcartrou": "Fitch Bay", "mus_nm_mun": "Stanstead" }, "geometry": { "type": "Point", "coordinates": [ -72.177523000772737, 45.116559000612682 ] } },
{ "type": "Feature", "properties": { "MUN_ID": "MU_424", "MRC_ID": "MRC_56", "nomcartrou": "Lacolle (Notre-Dame-du-Mont-Carmel)", "mus_nm_mun": "Lacolle" }, "geometry": { "type": "Point", "coordinates": [ -73.34337499970573, 45.067585001246243 ] } },
{ "type": "Feature", "properties": { "MUN_ID": "MU_568", "MRC_ID": "MRC_69", "nomcartrou": "Elgin", "mus_nm_mun": "Elgin" }, "geometry": { "type": "Point", "coordinates": [ -74.265795999651843, 45.021225000102305 ] } },
{ "type": "Feature", "properties": { "MUN_ID": "MU_1289", "MRC_ID": "MRC_44", "nomcartrou": "Coaticook", "mus_nm_mun": "Coaticook" }, "geometry": { "type": "Point", "coordinates": [ -71.803227001063391, 45.132533001390641 ] } },
{ "type": "Feature", "properties": { "MUN_ID": "MU_574", "MRC_ID": "MRC_69", "nomcartrou": "Akwesasne", "mus_nm_mun": "Akwesasne" }, "geometry": { "type": "Point", "coordinates": [ -74.644710999287739, 45.00033300083301 ] } },
{ "type": "Feature", "properties": { "MUN_ID": "MU_1322", "MRC_ID": "MRC_46", "nomcartrou": "Sutton", "mus_nm_mun": "Sutton" }, "geometry": { "type": "Point", "coordinates": [ -72.615475001123286, 45.106814000782329 ] } },
{ "type": "Feature", "properties": { "MUN_ID": "MU_421", "MRC_ID": "MRC_56", "nomcartrou": "Venise-en-Québec", "mus_nm_mun": "Venise-en-Québec" }, "geometry": { "type": "Point", "coordinates": [ -73.151930000858911, 45.084030000474918 ] } },
{ "type": "Feature", "properties": { "MUN_ID": "MU_562", "MRC_ID": "MRC_69", "nomcartrou": "Saint-Antoine-Abbé", "mus_nm_mun": "Franklin" }, "geometry": { "type": "Point", "coordinates": [ -73.888209999878868, 45.051828000565962 ] } },
{ "type": "Feature", "properties": { "MUN_ID": "MU_567", "MRC_ID": "MRC_69", "nomcartrou": "Hinchinbrooke (Athelstan)", "mus_nm_mun": "Hinchinbrooke" }, "geometry": { "type": "Point", "coordinates": [ -74.175795000916494, 45.036472001297611 ] } },
{ "type": "Feature", "properties": { "MUN_ID": "MU_424", "MRC_ID": "MRC_56", "nomcartrou": "Lacolle", "mus_nm_mun": "Lacolle" }, "geometry": { "type": "Point", "coordinates": [ -73.372855000375637, 45.081989000953769 ] } },
{ "type": "Feature", "properties": { "MUN_ID": "MU_550", "MRC_ID": "MRC_68", "nomcartrou": "Saint-Bernard-de-Lacolle", "mus_nm_mun": "Saint-Bernard-de-Lacolle" }, "geometry": { "type": "Point", "coordinates": [ -73.412230999451353, 45.083185000421942 ] } },
{ "type": "Feature", "properties": { "MUN_ID": "MU_1290", "MRC_ID": "MRC_44", "nomcartrou": "Kingscroft", "mus_nm_mun": "Barnston-Ouest" }, "geometry": { "type": "Point", "coordinates": [ -71.966232000651985, 45.143485000336156 ] } },
{ "type": "Feature", "properties": { "MUN_ID": "MU_573", "MRC_ID": "MRC_69", "nomcartrou": "Dundee Centre", "mus_nm_mun": "Dundee" }, "geometry": { "type": "Point", "coordinates": [ -74.42711699985982, 45.029215001339594 ] } },
{ "type": "Feature", "properties": { "MUN_ID": "MU_1298", "MRC_ID": "MRC_45", "nomcartrou": "Georgeville", "mus_nm_mun": "Stanstead" }, "geometry": { "type": "Point", "coordinates": [ -72.252389000197141, 45.139224000801683 ] } },
{ "type": "Feature", "properties": { "MUN_ID": "MU_1320", "MRC_ID": "MRC_46", "nomcartrou": "Stanbridge East", "mus_nm_mun": "Stanbridge East" }, "geometry": { "type": "Point", "coordinates": [ -72.915696000064472, 45.121512001140964 ] } },
{ "type": "Feature", "properties": { "MUN_ID": "MU_1317", "MRC_ID": "MRC_46", "nomcartrou": "Stanbridge Station", "mus_nm_mun": "Stanbridge Station" }, "geometry": { "type": "Point", "coordinates": [ -73.034455000119209, 45.118526000518344 ] } },
{ "type": "Feature", "properties": { "MUN_ID": "MU_1318", "MRC_ID": "MRC_46", "nomcartrou": "Bedford", "mus_nm_mun": "Bedford" }, "geometry": { "type": "Point", "coordinates": [ -72.987369000509872, 45.121093000032545 ] } },
{ "type": "Feature", "properties": { "MUN_ID": "MU_1321", "MRC_ID": "MRC_46", "nomcartrou": "Dunham", "mus_nm_mun": "Dunham" }, "geometry": { "type": "Point", "coordinates": [ -72.80069000017248, 45.130276000331975 ] } },
{ "type": "Feature", "properties": { "MUN_ID": "MU_1316", "MRC_ID": "MRC_46", "nomcartrou": "Pike River", "mus_nm_mun": "Pike River" }, "geometry": { "type": "Point", "coordinates": [ -73.068989998868346, 45.122155000658303 ] } },
{ "type": "Feature", "properties": { "MUN_ID": "MU_1300", "MRC_ID": "MRC_45", "nomcartrou": "Ayer's Cliff", "mus_nm_mun": "Ayer's Cliff" }, "geometry": { "type": "Point", "coordinates": [ -72.039380999576153, 45.167969001272247 ] } },
{ "type": "Feature", "properties": { "MUN_ID": "MU_1322", "MRC_ID": "MRC_46", "nomcartrou": "Sutton Junction", "mus_nm_mun": "Sutton" }, "geometry": { "type": "Point", "coordinates": [ -72.598071000551982, 45.147120000770208 ] } },
{ "type": "Feature", "properties": { "MUN_ID": "MU_428", "MRC_ID": "MRC_56", "nomcartrou": "Saint-Sébastien", "mus_nm_mun": "Saint-Sébastien" }, "geometry": { "type": "Point", "coordinates": [ -73.148290000325019, 45.124688000875452 ] } },
{ "type": "Feature", "properties": { "MUN_ID": "MU_1309", "MRC_ID": "MRC_45", "nomcartrou": "South Bolton", "mus_nm_mun": "Bolton-Est" }, "geometry": { "type": "Point", "coordinates": [ -72.368549999654732, 45.16024500097177 ] } },
{ "type": "Feature", "properties": { "MUN_ID": "MU_1306", "MRC_ID": "MRC_45", "nomcartrou": "Saint-Benoît-du-Lac", "mus_nm_mun": "Saint-Benoît-du-Lac" }, "geometry": { "type": "Point", "coordinates": [ -72.272266999316983, 45.168008001014769 ] } },
{ "type": "Feature", "properties": { "MUN_ID": "MU_563", "MRC_ID": "MRC_69", "nomcartrou": "Saint-Chrysostome", "mus_nm_mun": "Saint-Chrysostome" }, "geometry": { "type": "Point", "coordinates": [ -73.762137000777727, 45.101377000452842 ] } },
{ "type": "Feature", "properties": { "MUN_ID": "MU_1301", "MRC_ID": "MRC_45", "nomcartrou": "Massawippi", "mus_nm_mun": "Hatley" }, "geometry": { "type": "Point", "coordinates": [ -71.989464999235508, 45.182102000605802 ] } },
{ "type": "Feature", "properties": { "MUN_ID": "MU_425", "MRC_ID": "MRC_56", "nomcartrou": "Saint-Valentin", "mus_nm_mun": "Saint-Valentin" }, "geometry": { "type": "Point", "coordinates": [ -73.323677999746522, 45.12881000107248 ] } },
{ "type": "Feature", "properties": { "MUN_ID": "MU_1284", "MRC_ID": "MRC_44", "nomcartrou": "Saint-Malo", "mus_nm_mun": "Saint-Malo" }, "geometry": { "type": "Point", "coordinates": [ -71.500498999691231, 45.199566001651775 ] } },
{ "type": "Feature", "properties": { "MUN_ID": "MU_1301", "MRC_ID": "MRC_45", "nomcartrou": "Hatley", "mus_nm_mun": "Hatley" }, "geometry": { "type": "Point", "coordinates": [ -71.937155999951429, 45.18654300020075 ] } },
{ "type": "Feature", "properties": { "MUN_ID": "MU_427", "MRC_ID": "MRC_56", "nomcartrou": "Henryville", "mus_nm_mun": "Henryville" }, "geometry": { "type": "Point", "coordinates": [ -73.192183999443088, 45.136478001075758 ] } },
{ "type": "Feature", "properties": { "MUN_ID": "MU_426", "MRC_ID": "MRC_56", "nomcartrou": "Saint-Paul-de-l'Île-aux-Noix", "mus_nm_mun": "Saint-Paul-de-l'Île-aux-Noix" }, "geometry": { "type": "Point", "coordinates": [ -73.273973000269521, 45.13296500126765 ] } },
{ "type": "Feature", "properties": { "MUN_ID": "MU_569", "MRC_ID": "MRC_69", "nomcartrou": "Huntingdon", "mus_nm_mun": "Huntingdon" }, "geometry": { "type": "Point", "coordinates": [ -74.17328500125339, 45.087169001199605 ] } },
{ "type": "Feature", "properties": { "MUN_ID": "MU_570", "MRC_ID": "MRC_69", "nomcartrou": "Godmanchester", "mus_nm_mun": "Godmanchester" }, "geometry": { "type": "Point", "coordinates": [ -74.18779199931241, 45.092369000500263 ] } },
{ "type": "Feature", "properties": { "MUN_ID": "MU_1292", "MRC_ID": "MRC_44", "nomcartrou": "Sainte-Edwidge-de-Clifton", "mus_nm_mun": "Sainte-Edwidge-de-Clifton" }, "geometry": { "type": "Point", "coordinates": [ -71.680333999868623, 45.203464001580819 ] } },
{ "type": "Feature", "properties": { "MUN_ID": "MU_1330", "MRC_ID": "MRC_46", "nomcartrou": "Mystic", "mus_nm_mun": "Saint-Ignace-de-Stanbridge" }, "geometry": { "type": "Point", "coordinates": [ -72.986734000203512, 45.15417900096012 ] } },
{ "type": "Feature", "properties": { "MUN_ID": "MU_1307", "MRC_ID": "MRC_45", "nomcartrou": "Austin", "mus_nm_mun": "Austin" }, "geometry": { "type": "Point", "coordinates": [ -72.279969999400535, 45.184036001119431 ] } },
{ "type": "Feature", "properties": { "MUN_ID": "MU_572", "MRC_ID": "MRC_69", "nomcartrou": "Cazaville", "mus_nm_mun": "Saint-Anicet" }, "geometry": { "type": "Point", "coordinates": [ -74.370367999739941, 45.086471000509938 ] } },
{ "type": "Feature", "properties": { "MUN_ID": "MU_1325", "MRC_ID": "MRC_46", "nomcartrou": "West Brome", "mus_nm_mun": "Lac-Brome" }, "geometry": { "type": "Point", "coordinates": [ -72.662116000031077, 45.176055000433387 ] } },
{ "type": "Feature", "properties": { "MUN_ID": "MU_566", "MRC_ID": "MRC_69", "nomcartrou": "Saint-Pierre", "mus_nm_mun": "Très-Saint-Sacrement" }, "geometry": { "type": "Point", "coordinates": [ -73.898909999344241, 45.12302900089999 ] } },
{ "type": "Feature", "properties": { "MUN_ID": "MU_1330", "MRC_ID": "MRC_46", "nomcartrou": "Saint-Ignace-de-Stanbridge", "mus_nm_mun": "Saint-Ignace-de-Stanbridge" }, "geometry": { "type": "Point", "coordinates": [ -72.946712000105222, 45.171377000556767 ] } },
{ "type": "Feature", "properties": { "MUN_ID": "MU_570", "MRC_ID": "MRC_69", "nomcartrou": "Dewittville", "mus_nm_mun": "Godmanchester" }, "geometry": { "type": "Point", "coordinates": [ -74.094965999656623, 45.114313001205851 ] } },
{ "type": "Feature", "properties": { "MUN_ID": "MU_1331", "MRC_ID": "MRC_46", "nomcartrou": "Notre-Dame-de-Stanbridge", "mus_nm_mun": "Notre-Dame-de-Stanbridge" }, "geometry": { "type": "Point", "coordinates": [ -73.029824000619016, 45.170141001320999 ] } },
{ "type": "Feature", "properties": { "MUN_ID": "MU_1309", "MRC_ID": "MRC_45", "nomcartrou": "Bolton-Est (Bolton Centre)", "mus_nm_mun": "Bolton-Est" }, "geometry": { "type": "Point", "coordinates": [ -72.35608599958141, 45.201197000592309 ] } },
{ "type": "Feature", "properties": { "MUN_ID": "MU_1324", "MRC_ID": "MRC_46", "nomcartrou": "Brome", "mus_nm_mun": "Brome" }, "geometry": { "type": "Point", "coordinates": [ -72.57172699939909, 45.194088001006371 ] } },
{ "type": "Feature", "properties": { "MUN_ID": "MU_566", "MRC_ID": "MRC_69", "nomcartrou": "Ormstown", "mus_nm_mun": "Ormstown" }, "geometry": { "type": "Point", "coordinates": [ -73.995248000275964, 45.127928002108021 ] } },
{ "type": "Feature", "properties": { "MUN_ID": "MU_553", "MRC_ID": "MRC_68", "nomcartrou": "Sainte-Clotilde", "mus_nm_mun": "Sainte-Clotilde" }, "geometry": { "type": "Point", "coordinates": [ -73.677778000130829, 45.157700000184647 ] } },
{ "type": "Feature", "properties": { "MUN_ID": "MU_554", "MRC_ID": "MRC_68", "nomcartrou": "Saint-Patrice-de-Sherrington", "mus_nm_mun": "Saint-Patrice-de-Sherrington" }, "geometry": { "type": "Point", "coordinates": [ -73.524681999170966, 45.167147000581345 ] } },
{ "type": "Feature", "properties": { "MUN_ID": "MU_1294", "MRC_ID": "MRC_44", "nomcartrou": "Moe's River", "mus_nm_mun": "Compton" }, "geometry": { "type": "Point", "coordinates": [ -71.786734998976954, 45.241317001554947 ] } },
{ "type": "Feature", "properties": { "MUN_ID": "MU_565", "MRC_ID": "MRC_69", "nomcartrou": "Riverfield", "mus_nm_mun": "Très-Saint-Sacrement" }, "geometry": { "type": "Point", "coordinates": [ -73.811554000899292, 45.155403000994625 ] } },
{ "type": "Feature", "properties": { "MUN_ID": "MU_1325", "MRC_ID": "MRC_46", "nomcartrou": "Lac-Brome (Knowlton)", "mus_nm_mun": "Lac-Brome" }, "geometry": { "type": "Point", "coordinates": [ -72.510535001320989, 45.216457001290607 ] } },
{ "type": "Feature", "properties": { "MUN_ID": "MU_1327", "MRC_ID": "MRC_46", "nomcartrou": "Cowansville", "mus_nm_mun": "Cowansville" }, "geometry": { "type": "Point", "coordinates": [ -72.747992998793222, 45.207465001419102 ] } },
{ "type": "Feature", "properties": { "MUN_ID": "MU_1294", "MRC_ID": "MRC_44", "nomcartrou": "Compton", "mus_nm_mun": "Compton" }, "geometry": { "type": "Point", "coordinates": [ -71.826975999613708, 45.242361001029295 ] } },
{ "type": "Feature", "properties": { "MUN_ID": "MU_1250", "MRC_ID": "MRC_41", "nomcartrou": "East Clifton", "mus_nm_mun": "Saint-Isidore-de-Clifton" }, "geometry": { "type": "Point", "coordinates": [ -71.571311001124116, 45.258769001127582 ] } },
{ "type": "Feature", "properties": { "MUN_ID": "MU_555", "MRC_ID": "MRC_68", "nomcartrou": "Napierville", "mus_nm_mun": "Napierville" }, "geometry": { "type": "Point", "coordinates": [ -73.405091000626015, 45.186541000172319 ] } },
{ "type": "Feature", "properties": { "MUN_ID": "MU_565", "MRC_ID": "MRC_69", "nomcartrou": "Très-Saint-Sacrement", "mus_nm_mun": "Très-Saint-Sacrement" }, "geometry": { "type": "Point", "coordinates": [ -73.845713000102847, 45.167864000440723 ] } },
{ "type": "Feature", "properties": { "MUN_ID": "MU_572", "MRC_ID": "MRC_69", "nomcartrou": "Saint-Anicet", "mus_nm_mun": "Saint-Anicet" }, "geometry": { "type": "Point", "coordinates": [ -74.362079999275394, 45.141033000800682 ] } },
{ "type": "Feature", "properties": { "MUN_ID": "MU_1250", "MRC_ID": "MRC_41", "nomcartrou": "Saint-Isidore-de-Clifton", "mus_nm_mun": "Saint-Isidore-de-Clifton" }, "geometry": { "type": "Point", "coordinates": [ -71.513896999926118, 45.266594001100493 ] } },
{ "type": "Feature", "properties": { "MUN_ID": "MU_1304", "MRC_ID": "MRC_45", "nomcartrou": "Sainte-Catherine-de-Hatley", "mus_nm_mun": "Sainte-Catherine-de-Hatley" }, "geometry": { "type": "Point", "coordinates": [ -72.048406999362129, 45.249529001459678 ] } },
{ "type": "Feature", "properties": { "MUN_ID": "MU_556", "MRC_ID": "MRC_68", "nomcartrou": "Saint-Cyprien-de-Napierville", "mus_nm_mun": "Saint-Cyprien-de-Napierville" }, "geometry": { "type": "Point", "coordinates": [ -73.425487001010296, 45.193684000284463 ] } },
{ "type": "Feature", "properties": { "MUN_ID": "MU_430", "MRC_ID": "MRC_56", "nomcartrou": "Sainte-Anne-de-Sabrevois", "mus_nm_mun": "Sainte-Anne-de-Sabrevois" }, "geometry": { "type": "Point", "coordinates": [ -73.229379999986335, 45.207137001063742 ] } },
{ "type": "Feature", "properties": { "MUN_ID": "MU_1321", "MRC_ID": "MRC_46", "nomcartrou": "Farnham Centre", "mus_nm_mun": "Dunham" }, "geometry": { "type": "Point", "coordinates": [ -72.857642001343166, 45.225978000369878 ] } },
{ "type": "Feature", "properties": { "MUN_ID": "MU_1323", "MRC_ID": "MRC_46", "nomcartrou": "Bolton-Ouest", "mus_nm_mun": "Bolton-Ouest" }, "geometry": { "type": "Point", "coordinates": [ -72.454716000308991, 45.243506001125418 ] } },
{ "type": "Feature", "properties": { "MUN_ID": "MU_571", "MRC_ID": "MRC_69", "nomcartrou": "Sainte-Barbe", "mus_nm_mun": "Sainte-Barbe" }, "geometry": { "type": "Point", "coordinates": [ -74.195615000777025, 45.163089001170135 ] } },
{ "type": "Feature", "properties": { "MUN_ID": "MU_431", "MRC_ID": "MRC_56", "nomcartrou": "Saint-Blaise-sur-Richelieu", "mus_nm_mun": "Saint-Blaise-sur-Richelieu" }, "geometry": { "type": "Point", "coordinates": [ -73.287346999674469, 45.21121100023398 ] } },
{ "type": "Feature", "properties": { "MUN_ID": "MU_564", "MRC_ID": "MRC_69", "nomcartrou": "Howick", "mus_nm_mun": "Howick" }, "geometry": { "type": "Point", "coordinates": [ -73.846810000054234, 45.183788000211017 ] } },
{ "type": "Feature", "properties": { "MUN_ID": "MU_1332", "MRC_ID": "MRC_46", "nomcartrou": "Sainte-Sabine", "mus_nm_mun": "Sainte-Sabine" }, "geometry": { "type": "Point", "coordinates": [ -73.020180999231314, 45.22642400077347 ] } },
{ "type": "Feature", "properties": { "MUN_ID": "MU_1293", "MRC_ID": "MRC_44", "nomcartrou": "Martinville", "mus_nm_mun": "Martinville" }, "geometry": { "type": "Point", "coordinates": [ -71.71837200013546, 45.278124000540075 ] } },
{ "type": "Feature", "properties": { "MUN_ID": "MU_1305", "MRC_ID": "MRC_45", "nomcartrou": "Magog", "mus_nm_mun": "Magog" }, "geometry": { "type": "Point", "coordinates": [ -72.147711000022412, 45.264881000418875 ] } },
{ "type": "Feature", "properties": { "MUN_ID": "MU_1328", "MRC_ID": "MRC_46", "nomcartrou": "East Farnham", "mus_nm_mun": "East Farnham" }, "geometry": { "type": "Point", "coordinates": [ -72.772909998833271, 45.241170001154025 ] } },
{ "type": "Feature", "properties": { "MUN_ID": "MU_1251", "MRC_ID": "MRC_41", "nomcartrou": "Chartierville", "mus_nm_mun": "Chartierville" }, "geometry": { "type": "Point", "coordinates": [ -71.204585999332906, 45.295767000887132 ] } },
{ "type": "Feature", "properties": { "MUN_ID": "MU_581", "MRC_ID": "MRC_70", "nomcartrou": "Saint-Stanislas-de-Kostka", "mus_nm_mun": "Saint-Stanislas-de-Kostka" }, "geometry": { "type": "Point", "coordinates": [ -74.130152999360917, 45.17783900042469 ] } },
{ "type": "Feature", "properties": { "MUN_ID": "MU_1302", "MRC_ID": "MRC_45", "nomcartrou": "North Hatley", "mus_nm_mun": "North Hatley" }, "geometry": { "type": "Point", "coordinates": [ -71.973152998849244, 45.275446001259951 ] } },
{ "type": "Feature", "properties": { "MUN_ID": "MU_1295", "MRC_ID": "MRC_44", "nomcartrou": "Waterville", "mus_nm_mun": "Waterville" }, "geometry": { "type": "Point", "coordinates": [ -71.890730999680684, 45.27829000077557 ] } },
{ "type": "Feature", "properties": { "MUN_ID": "MU_572", "MRC_ID": "MRC_69", "nomcartrou": "Port Lewis", "mus_nm_mun": "Saint-Anicet" }, "geometry": { "type": "Point", "coordinates": [ -74.281486999943525, 45.17083900102056 ] } },
{ "type": "Feature", "properties": { "MUN_ID": "MU_1329", "MRC_ID": "MRC_46", "nomcartrou": "Brigham", "mus_nm_mun": "Brigham" }, "geometry": { "type": "Point", "coordinates": [ -72.845496000191858, 45.246403001135661 ] } },
{ "type": "Feature", "properties": { "MUN_ID": "MU_1310", "MRC_ID": "MRC_45", "nomcartrou": "Saint-Étienne-de-Bolton", "mus_nm_mun": "Saint-Étienne-de-Bolton" }, "geometry": { "type": "Point", "coordinates": [ -72.380714000456493, 45.266832000998285 ] } },
{ "type": "Feature", "properties": { "MUN_ID": "MU_1325", "MRC_ID": "MRC_46", "nomcartrou": "Iron Hill", "mus_nm_mun": "Lac-Brome" }, "geometry": { "type": "Point", "coordinates": [ -72.625461999924227, 45.258967000077185 ] } },
{ "type": "Feature", "properties": { "MUN_ID": "MU_429", "MRC_ID": "MRC_56", "nomcartrou": "Saint-Alexandre", "mus_nm_mun": "Saint-Alexandre" }, "geometry": { "type": "Point", "coordinates": [ -73.120295999401932, 45.240975000641576 ] } },
{ "type": "Feature", "properties": { "MUN_ID": "MU_1250", "MRC_ID": "MRC_41", "nomcartrou": "Saint-Mathias-de-Bonneterre", "mus_nm_mun": "Saint-Isidore-de-Clifton" }, "geometry": { "type": "Point", "coordinates": [ -71.391443999605002, 45.309505001309887 ] } },
{ "type": "Feature", "properties": { "MUN_ID": "MU_576", "MRC_ID": "MRC_70", "nomcartrou": "Saint-Urbain-Premier", "mus_nm_mun": "Saint-Urbain-Premier" }, "geometry": { "type": "Point", "coordinates": [ -73.737462000784461, 45.219516001342434 ] } },
{ "type": "Feature", "properties": { "MUN_ID": "MU_1305", "MRC_ID": "MRC_45", "nomcartrou": "Omerville", "mus_nm_mun": "Magog" }, "geometry": { "type": "Point", "coordinates": [ -72.111443000136603, 45.290793001192903 ] } },
{ "type": "Feature", "properties": { "MUN_ID": "MU_559", "MRC_ID": "MRC_68", "nomcartrou": "Saint-Michel", "mus_nm_mun": "Saint-Michel" }, "geometry": { "type": "Point", "coordinates": [ -73.570267999335115, 45.234928000792571 ] } },
{ "type": "Feature", "properties": { "MUN_ID": "MU_558", "MRC_ID": "MRC_68", "nomcartrou": "Saint-Édouard", "mus_nm_mun": "Saint-Édouard" }, "geometry": { "type": "Point", "coordinates": [ -73.510423999677954, 45.239100000990057 ] } },
{ "type": "Feature", "properties": { "MUN_ID": "MU_580", "MRC_ID": "MRC_70", "nomcartrou": "Saint-Louis-de-Gonzague", "mus_nm_mun": "Saint-Louis-de-Gonzague" }, "geometry": { "type": "Point", "coordinates": [ -73.997591999873251, 45.214526000542072 ] } },
{ "type": "Feature", "properties": { "MUN_ID": "MU_1326", "MRC_ID": "MRC_46", "nomcartrou": "Adamsville", "mus_nm_mun": "Bromont" }, "geometry": { "type": "Point", "coordinates": [ -72.785451001036677, 45.275873001359038 ] } },
{ "type": "Feature", "properties": { "MUN_ID": "MU_1325", "MRC_ID": "MRC_46", "nomcartrou": "Foster", "mus_nm_mun": "Lac-Brome" }, "geometry": { "type": "Point", "coordinates": [ -72.493786000691827, 45.28953600050594 ] } },
{ "type": "Feature", "properties": { "MUN_ID": "MU_1308", "MRC_ID": "MRC_45", "nomcartrou": "Eastman", "mus_nm_mun": "Eastman" }, "geometry": { "type": "Point", "coordinates": [ -72.315008000582438, 45.301252000502096 ] } },
{ "type": "Feature", "properties": { "MUN_ID": "MU_1325", "MRC_ID": "MRC_46", "nomcartrou": "Fulford", "mus_nm_mun": "Lac-Brome" }, "geometry": { "type": "Point", "coordinates": [ -72.558175001314581, 45.296594000379628 ] } },
{ "type": "Feature", "properties": { "MUN_ID": "MU_1253", "MRC_ID": "MRC_41", "nomcartrou": "Randboro", "mus_nm_mun": "Newport" }, "geometry": { "type": "Point", "coordinates": [ -71.528026001173643, 45.334629001313559 ] } },
{ "type": "Feature", "properties": { "MUN_ID": "MU_1312", "MRC_ID": "MRC_45", "nomcartrou": "Orford (Cherry River)", "mus_nm_mun": "Orford" }, "geometry": { "type": "Point", "coordinates": [ -72.16837000109166, 45.313980001350416 ] } },
{ "type": "Feature", "properties": { "MUN_ID": "MU_1333", "MRC_ID": "MRC_46", "nomcartrou": "Farnham", "mus_nm_mun": "Farnham" }, "geometry": { "type": "Point", "coordinates": [ -72.976802000076262, 45.284087001125165 ] } },
{ "type": "Feature", "properties": { "MUN_ID": "MU_1254", "MRC_ID": "MRC_41", "nomcartrou": "Sawyerville", "mus_nm_mun": "Cookshire-Eaton" }, "geometry": { "type": "Point", "coordinates": [ -71.565465000145721, 45.337503000529438 ] } },
{ "type": "Feature", "properties": { "MUN_ID": "MU_1254", "MRC_ID": "MRC_41", "nomcartrou": "Johnville", "mus_nm_mun": "Cookshire-Eaton" }, "geometry": { "type": "Point", "coordinates": [ -71.750952000807118, 45.331919000898516 ] } },
{ "type": "Feature", "properties": { "MUN_ID": "MU_577", "MRC_ID": "MRC_70", "nomcartrou": "Sainte-Martine", "mus_nm_mun": "Sainte-Martine" }, "geometry": { "type": "Point", "coordinates": [ -73.80482100032917, 45.245637000843821 ] } },
{ "type": "Feature", "properties": { "MUN_ID": "MU_560", "MRC_ID": "MRC_68", "nomcartrou": "Saint-Rémi", "mus_nm_mun": "Saint-Rémi" }, "geometry": { "type": "Point", "coordinates": [ -73.619209999215116, 45.259275001418331 ] } },
{ "type": "Feature", "properties": { "MUN_ID": "MU_579", "MRC_ID": "MRC_70", "nomcartrou": "Saint-Étienne-de-Beauharnois", "mus_nm_mun": "Saint-Étienne-de-Beauharnois" }, "geometry": { "type": "Point", "coordinates": [ -73.914907000081186, 45.246892001439619 ] } },
{ "type": "Feature", "properties": { "MUN_ID": "MU_1311", "MRC_ID": "MRC_45", "nomcartrou": "Stukely-Sud", "mus_nm_mun": "Stukely-Sud" }, "geometry": { "type": "Point", "coordinates": [ -72.410403001050028, 45.317843001667974 ] } },
{ "type": "Feature", "properties": { "MUN_ID": "MU_1295", "MRC_ID": "MRC_44", "nomcartrou": "Huntingville", "mus_nm_mun": "Waterville" }, "geometry": { "type": "Point", "coordinates": [ -71.847722000977768, 45.339130001506909 ] } },
{ "type": "Feature", "properties": { "MUN_ID": "MU_557", "MRC_ID": "MRC_68", "nomcartrou": "Saint-Jacques-le-Mineur", "mus_nm_mun": "Saint-Jacques-le-Mineur" }, "geometry": { "type": "Point", "coordinates": [ -73.419135000457118, 45.275070001330434 ] } },
{ "type": "Feature", "properties": { "MUN_ID": "MU_1254", "MRC_ID": "MRC_41", "nomcartrou": "Bulwer", "mus_nm_mun": "Cookshire-Eaton" }, "geometry": { "type": "Point", "coordinates": [ -71.697004000618008, 45.34589100156613 ] } },
{ "type": "Feature", "properties": { "MUN_ID": "MU_584", "MRC_ID": "MRC_71", "nomcartrou": "Rivière-Beaudette", "mus_nm_mun": "Rivière-Beaudette" }, "geometry": { "type": "Point", "coordinates": [ -74.329175999280665, 45.228739000224614 ] } },
{ "type": "Feature", "properties": { "MUN_ID": "MU_1326", "MRC_ID": "MRC_46", "nomcartrou": "Bromont", "mus_nm_mun": "Bromont" }, "geometry": { "type": "Point", "coordinates": [ -72.64665299990746, 45.318516000463191 ] } },
{ "type": "Feature", "properties": { "MUN_ID": "MU_1283", "MRC_ID": "MRC_43", "nomcartrou": "Deauville", "mus_nm_mun": "Sherbrooke" }, "geometry": { "type": "Point", "coordinates": [ -72.04158199964553, 45.342105000661043 ] } },
{ "type": "Feature", "properties": { "MUN_ID": "MU_587", "MRC_ID": "MRC_71", "nomcartrou": "Saint-Zotique", "mus_nm_mun": "Saint-Zotique" }, "geometry": { "type": "Point", "coordinates": [ -74.245901000096836, 45.242865000415939 ] } },
{ "type": "Feature", "properties": { "MUN_ID": "MU_1339", "MRC_ID": "MRC_47", "nomcartrou": "Frost Village", "mus_nm_mun": "Shefford" }, "geometry": { "type": "Point", "coordinates": [ -72.482019999342057, 45.328900001631965 ] } },
{ "type": "Feature", "properties": { "MUN_ID": "MU_1254", "MRC_ID": "MRC_41", "nomcartrou": "Eaton", "mus_nm_mun": "Cookshire-Eaton" }, "geometry": { "type": "Point", "coordinates": [ -71.597959000689727, 45.364730001536678 ] } },
{ "type": "Feature", "properties": { "MUN_ID": "MU_1090", "MRC_ID": "MRC_30", "nomcartrou": "Saint-Augustin-de-Woburn", "mus_nm_mun": "Saint-Augustin-de-Woburn" }, "geometry": { "type": "Point", "coordinates": [ -70.86290599941006, 45.384550000823523 ] } },
{ "type": "Feature", "properties": { "MUN_ID": "MU_582", "MRC_ID": "MRC_70", "nomcartrou": "Salaberry-de-Valleyfield", "mus_nm_mun": "Salaberry-de-Valleyfield" }, "geometry": { "type": "Point", "coordinates": [ -74.129885999828915, 45.256479000767044 ] } },
{ "type": "Feature", "properties": { "MUN_ID": "MU_1335", "MRC_ID": "MRC_47", "nomcartrou": "Saint-Alphonse-de-Granby", "mus_nm_mun": "Saint-Alphonse-de-Granby" }, "geometry": { "type": "Point", "coordinates": [ -72.809086000179775, 45.325085000967277 ] } },
{ "type": "Feature", "properties": { "MUN_ID": "MU_432", "MRC_ID": "MRC_56", "nomcartrou": "Iberville", "mus_nm_mun": "Saint-Jean-sur-Richelieu" }, "geometry": { "type": "Point", "coordinates": [ -73.241994000097421, 45.306320000953448 ] } },
{ "type": "Feature", "properties": { "MUN_ID": "MU_432", "MRC_ID": "MRC_56", "nomcartrou": "Saint-Jean-sur-Richelieu", "mus_nm_mun": "Saint-Jean-sur-Richelieu" }, "geometry": { "type": "Point", "coordinates": [ -73.250799000055522, 45.306140000792553 ] } },
{ "type": "Feature", "properties": { "MUN_ID": "MU_588", "MRC_ID": "MRC_71", "nomcartrou": "Les Coteaux", "mus_nm_mun": "Les Coteaux" }, "geometry": { "type": "Point", "coordinates": [ -74.21387400006175, 45.258068001167644 ] } },
{ "type": "Feature", "properties": { "MUN_ID": "MU_1283", "MRC_ID": "MRC_43", "nomcartrou": "Lennoxville", "mus_nm_mun": "Sherbrooke" }, "geometry": { "type": "Point", "coordinates": [ -71.856516000036009, 45.36628300003678 ] } },
{ "type": "Feature", "properties": { "MUN_ID": "MU_1254", "MRC_ID": "MRC_41", "nomcartrou": "Birchton", "mus_nm_mun": "Cookshire-Eaton" }, "geometry": { "type": "Point", "coordinates": [ -71.652757000405103, 45.373269001249596 ] } },
{ "type": "Feature", "properties": { "MUN_ID": "MU_1337", "MRC_ID": "MRC_47", "nomcartrou": "Waterloo", "mus_nm_mun": "Waterloo" }, "geometry": { "type": "Point", "coordinates": [ -72.516270999737998, 45.344091000171957 ] } },
{ "type": "Feature", "properties": { "MUN_ID": "MU_582", "MRC_ID": "MRC_70", "nomcartrou": "Grande-Île", "mus_nm_mun": "Salaberry-de-Valleyfield" }, "geometry": { "type": "Point", "coordinates": [ -74.137073000388554, 45.269381001631395 ] } },
{ "type": "Feature", "properties": { "MUN_ID": "MU_434", "MRC_ID": "MRC_56", "nomcartrou": "Sainte-Brigide-d'Iberville", "mus_nm_mun": "Sainte-Brigide-d'Iberville" }, "geometry": { "type": "Point", "coordinates": [ -73.065820999267856, 45.323794000691244 ] } },
{ "type": "Feature", "properties": { "MUN_ID": "MU_1091", "MRC_ID": "MRC_30", "nomcartrou": "Notre-Dame-des-Bois", "mus_nm_mun": "Notre-Dame-des-Bois" }, "geometry": { "type": "Point", "coordinates": [ -71.073060999906474, 45.39455900136641 ] } },
{ "type": "Feature", "properties": { "MUN_ID": "MU_1283", "MRC_ID": "MRC_43", "nomcartrou": "Rock Forest", "mus_nm_mun": "Sherbrooke" }, "geometry": { "type": "Point", "coordinates": [ -71.990094999361702, 45.370267001490198 ] } },
{ "type": "Feature", "properties": { "MUN_ID": "MU_432", "MRC_ID": "MRC_56", "nomcartrou": "L'Acadie", "mus_nm_mun": "Saint-Jean-sur-Richelieu" }, "geometry": { "type": "Point", "coordinates": [ -73.345075000646105, 45.315391000981542 ] } },
{ "type": "Feature", "properties": { "MUN_ID": "MU_1283", "MRC_ID": "MRC_43", "nomcartrou": "Ascot", "mus_nm_mun": "Sherbrooke" }, "geometry": { "type": "Point", "coordinates": [ -71.893889000159703, 45.375236000918903 ] } },
{ "type": "Feature", "properties": { "MUN_ID": "MU_1253", "MRC_ID": "MRC_41", "nomcartrou": "Newport (Island Brook)", "mus_nm_mun": "Newport" }, "geometry": { "type": "Point", "coordinates": [ -71.477090999618738, 45.389042001258296 ] } },
{ "type": "Feature", "properties": { "MUN_ID": "MU_543", "MRC_ID": "MRC_67", "nomcartrou": "Saint-Isidore", "mus_nm_mun": "Saint-Isidore" }, "geometry": { "type": "Point", "coordinates": [ -73.680746000598276, 45.300757000937431 ] } },
{ "type": "Feature", "properties": { "MUN_ID": "MU_536", "MRC_ID": "MRC_67", "nomcartrou": "Saint-Mathieu", "mus_nm_mun": "Saint-Mathieu" }, "geometry": { "type": "Point", "coordinates": [ -73.522055999808629, 45.312909001200431 ] } },
{ "type": "Feature", "properties": { "MUN_ID": "MU_1252", "MRC_ID": "MRC_41", "nomcartrou": "La Patrie", "mus_nm_mun": "La Patrie" }, "geometry": { "type": "Point", "coordinates": [ -71.249635999729108, 45.401832000717256 ] } },
{ "type": "Feature", "properties": { "MUN_ID": "MU_588", "MRC_ID": "MRC_71", "nomcartrou": "Coteau-Station", "mus_nm_mun": "Les Coteaux" }, "geometry": { "type": "Point", "coordinates": [ -74.229961000736552, 45.278553001260732 ] } },
{ "type": "Feature", "properties": { "MUN_ID": "MU_582", "MRC_ID": "MRC_70", "nomcartrou": "Saint-Timothée", "mus_nm_mun": "Salaberry-de-Valleyfield" }, "geometry": { "type": "Point", "coordinates": [ -74.040636999793904, 45.289459000694237 ] } },
{ "type": "Feature", "properties": { "MUN_ID": "MU_433", "MRC_ID": "MRC_56", "nomcartrou": "Mont-Saint-Grégoire", "mus_nm_mun": "Mont-Saint-Grégoire" }, "geometry": { "type": "Point", "coordinates": [ -73.162524000919518, 45.338372000583036 ] } },
{ "type": "Feature", "properties": { "MUN_ID": "MU_544", "MRC_ID": "MRC_67", "nomcartrou": "Mercier", "mus_nm_mun": "Mercier" }, "geometry": { "type": "Point", "coordinates": [ -73.745384999877828, 45.310679001183694 ] } },
{ "type": "Feature", "properties": { "MUN_ID": "MU_1339", "MRC_ID": "MRC_47", "nomcartrou": "Shefford", "mus_nm_mun": "Shefford" }, "geometry": { "type": "Point", "coordinates": [ -72.565620000254881, 45.368800000881293 ] } },
{ "type": "Feature", "properties": { "MUN_ID": "MU_589", "MRC_ID": "MRC_71", "nomcartrou": "Coteau-du-Lac", "mus_nm_mun": "Coteau-du-Lac" }, "geometry": { "type": "Point", "coordinates": [ -74.174711998861255, 45.291599000279525 ] } },
{ "type": "Feature", "properties": { "MUN_ID": "MU_413", "MRC_ID": "MRC_55", "nomcartrou": "Ange-Gardien", "mus_nm_mun": "Ange-Gardien" }, "geometry": { "type": "Point", "coordinates": [ -72.935722999195335, 45.357141000819233 ] } },
{ "type": "Feature", "properties": { "MUN_ID": "MU_1283", "MRC_ID": "MRC_43", "nomcartrou": "Saint-Élie-d'Orford", "mus_nm_mun": "Sherbrooke" }, "geometry": { "type": "Point", "coordinates": [ -72.040391000307494, 45.395499999987223 ] } },
{ "type": "Feature", "properties": { "MUN_ID": "MU_578", "MRC_ID": "MRC_70", "nomcartrou": "Beauharnois", "mus_nm_mun": "Beauharnois" }, "geometry": { "type": "Point", "coordinates": [ -73.871387000629142, 45.316082000150182 ] } },
{ "type": "Feature", "properties": { "MUN_ID": "MU_591", "MRC_ID": "MRC_71", "nomcartrou": "Les Cèdres", "mus_nm_mun": "Les Cèdres" }, "geometry": { "type": "Point", "coordinates": [ -74.055603999749536, 45.306493001355335 ] } },
{ "type": "Feature", "properties": { "MUN_ID": "MU_1283", "MRC_ID": "MRC_43", "nomcartrou": "Sherbrooke", "mus_nm_mun": "Sherbrooke" }, "geometry": { "type": "Point", "coordinates": [ -71.888407999744274, 45.402350001431344 ] } },
{ "type": "Feature", "properties": { "MUN_ID": "MU_1254", "MRC_ID": "MRC_41", "nomcartrou": "Cookshire-Eaton", "mus_nm_mun": "Cookshire-Eaton" }, "geometry": { "type": "Point", "coordinates": [ -71.629138000876026, 45.412378000596476 ] } },
{ "type": "Feature", "properties": { "MUN_ID": "MU_1338", "MRC_ID": "MRC_47", "nomcartrou": "Warden", "mus_nm_mun": "Warden" }, "geometry": { "type": "Point", "coordinates": [ -72.501869999633726, 45.381872001935207 ] } },
{ "type": "Feature", "properties": { "MUN_ID": "MU_578", "MRC_ID": "MRC_70", "nomcartrou": "Maple Grove", "mus_nm_mun": "Beauharnois" }, "geometry": { "type": "Point", "coordinates": [ -73.842780001047117, 45.320578000121024 ] } },
{ "type": "Feature", "properties": { "MUN_ID": "MU_578", "MRC_ID": "MRC_70", "nomcartrou": "Melocheville", "mus_nm_mun": "Beauharnois" }, "geometry": { "type": "Point", "coordinates": [ -73.928727999285101, 45.316943000968912 ] } },
{ "type": "Feature", "properties": { "MUN_ID": "MU_1283", "MRC_ID": "MRC_43", "nomcartrou": "Fleurimont", "mus_nm_mun": "Sherbrooke" }, "geometry": { "type": "Point", "coordinates": [ -71.85187199992798, 45.408733000498174 ] } },
{ "type": "Feature", "properties": { "MUN_ID": "MU_585", "MRC_ID": "MRC_71", "nomcartrou": "Saint-Télesphore", "mus_nm_mun": "Saint-Télesphore" }, "geometry": { "type": "Point", "coordinates": [ -74.389970000554555, 45.29358500081895 ] } },
{ "type": "Feature", "properties": { "MUN_ID": "MU_586", "MRC_ID": "MRC_71", "nomcartrou": "Saint-Polycarpe", "mus_nm_mun": "Saint-Polycarpe" }, "geometry": { "type": "Point", "coordinates": [ -74.303561999989213, 45.302522001809692 ] } },
{ "type": "Feature", "properties": { "MUN_ID": "MU_585", "MRC_ID": "MRC_71", "nomcartrou": "Dalhousie Station", "mus_nm_mun": "Saint-Télesphore" }, "geometry": { "type": "Point", "coordinates": [ -74.455084999419483, 45.296976000785314 ] } },
{ "type": "Feature", "properties": { "MUN_ID": "MU_432", "MRC_ID": "MRC_56", "nomcartrou": "Saint-Luc", "mus_nm_mun": "Saint-Jean-sur-Richelieu" }, "geometry": { "type": "Point", "coordinates": [ -73.300695000115397, 45.358799000946888 ] } },
{ "type": "Feature", "properties": { "MUN_ID": "MU_537", "MRC_ID": "MRC_67", "nomcartrou": "Saint-Philippe", "mus_nm_mun": "Saint-Philippe" }, "geometry": { "type": "Point", "coordinates": [ -73.474200000680995, 45.352618001723812 ] } },
{ "type": "Feature", "properties": { "MUN_ID": "MU_1268", "MRC_ID": "MRC_42", "nomcartrou": "Bonsecours", "mus_nm_mun": "Bonsecours" }, "geometry": { "type": "Point", "coordinates": [ -72.305012000093612, 45.404914001190541 ] } },
{ "type": "Feature", "properties": { "MUN_ID": "MU_592", "MRC_ID": "MRC_71", "nomcartrou": "Pointe-des-Cascades", "mus_nm_mun": "Pointe-des-Cascades" }, "geometry": { "type": "Point", "coordinates": [ -73.969101999447048, 45.329729000367159 ] } },
{ "type": "Feature", "properties": { "MUN_ID": "MU_1270", "MRC_ID": "MRC_42", "nomcartrou": "Sainte-Anne-de-la-Rochelle", "mus_nm_mun": "Sainte-Anne-de-la-Rochelle" }, "geometry": { "type": "Point", "coordinates": [ -72.402491999495112, 45.405315000675053 ] } },
{ "type": "Feature", "properties": { "MUN_ID": "MU_546", "MRC_ID": "MRC_67", "nomcartrou": "Léry", "mus_nm_mun": "Léry" }, "geometry": { "type": "Point", "coordinates": [ -73.805865001125824, 45.344374001148061 ] } },
{ "type": "Feature", "properties": { "MUN_ID": "MU_1336", "MRC_ID": "MRC_47", "nomcartrou": "Granby", "mus_nm_mun": "Granby" }, "geometry": { "type": "Point", "coordinates": [ -72.723123000337125, 45.398481001448488 ] } },
{ "type": "Feature", "properties": { "MUN_ID": "MU_545", "MRC_ID": "MRC_67", "nomcartrou": "Châteauguay", "mus_nm_mun": "Châteauguay" }, "geometry": { "type": "Point", "coordinates": [ -73.715937999716019, 45.358500999862571 ] } },
{ "type": "Feature", "properties": { "MUN_ID": "MU_1269", "MRC_ID": "MRC_42", "nomcartrou": "Lawrenceville", "mus_nm_mun": "Lawrenceville" }, "geometry": { "type": "Point", "coordinates": [ -72.344305999971937, 45.42150900077182 ] } },
{ "type": "Feature", "properties": { "MUN_ID": "MU_594", "MRC_ID": "MRC_71", "nomcartrou": "Notre-Dame-de-l'Île-Perrot", "mus_nm_mun": "Notre-Dame-de-l'Île-Perrot" }, "geometry": { "type": "Point", "coordinates": [ -73.902622000172272, 45.350881001378269 ] } },
{ "type": "Feature", "properties": { "MUN_ID": "MU_416", "MRC_ID": "MRC_55", "nomcartrou": "Sainte-Angèle-de-Monnoir", "mus_nm_mun": "Sainte-Angèle-de-Monnoir" }, "geometry": { "type": "Point", "coordinates": [ -73.104647000126235, 45.391301001369079 ] } },
{ "type": "Feature", "properties": { "MUN_ID": "MU_1259", "MRC_ID": "MRC_41", "nomcartrou": "Hampden", "mus_nm_mun": "Hampden" }, "geometry": { "type": "Point", "coordinates": [ -71.258720000776634, 45.460812000745207 ] } },
{ "type": "Feature", "properties": { "MUN_ID": "MU_542", "MRC_ID": "MRC_67", "nomcartrou": "Saint-Constant", "mus_nm_mun": "Saint-Constant" }, "geometry": { "type": "Point", "coordinates": [ -73.570457999979027, 45.371764001313352 ] } },
{ "type": "Feature", "properties": { "MUN_ID": "MU_1255", "MRC_ID": "MRC_41", "nomcartrou": "Ascot Corner", "mus_nm_mun": "Ascot Corner" }, "geometry": { "type": "Point", "coordinates": [ -71.765973000040731, 45.448079001762352 ] } },
{ "type": "Feature", "properties": { "MUN_ID": "MU_540", "MRC_ID": "MRC_67", "nomcartrou": "Delson", "mus_nm_mun": "Delson" }, "geometry": { "type": "Point", "coordinates": [ -73.542122999495646, 45.375699000915773 ] } },
{ "type": "Feature", "properties": { "MUN_ID": "MU_594", "MRC_ID": "MRC_71", "nomcartrou": "Pointe-du-Moulin", "mus_nm_mun": "Notre-Dame-de-l'Île-Perrot" }, "geometry": { "type": "Point", "coordinates": [ -73.878330001078439, 45.363450001212719 ] } },
{ "type": "Feature", "properties": { "MUN_ID": "MU_415", "MRC_ID": "MRC_55", "nomcartrou": "Saint-Césaire", "mus_nm_mun": "Saint-Césaire" }, "geometry": { "type": "Point", "coordinates": [ -73.002196000050574, 45.410394000930602 ] } },
{ "type": "Feature", "properties": { "MUN_ID": "MU_590", "MRC_ID": "MRC_71", "nomcartrou": "Saint-Clet", "mus_nm_mun": "Saint-Clet" }, "geometry": { "type": "Point", "coordinates": [ -74.22424499975412, 45.35304900094107 ] } },
{ "type": "Feature", "properties": { "MUN_ID": "MU_1093", "MRC_ID": "MRC_30", "nomcartrou": "Piopolis", "mus_nm_mun": "Piopolis" }, "geometry": { "type": "Point", "coordinates": [ -70.903719998556497, 45.486509000970102 ] } },
{ "type": "Feature", "properties": { "MUN_ID": "MU_539", "MRC_ID": "MRC_67", "nomcartrou": "Candiac", "mus_nm_mun": "Candiac" }, "geometry": { "type": "Point", "coordinates": [ -73.516568000389725, 45.392379001067738 ] } },
{ "type": "Feature", "properties": { "MUN_ID": "MU_1092", "MRC_ID": "MRC_30", "nomcartrou": "Val-Racine", "mus_nm_mun": "Val-Racine" }, "geometry": { "type": "Point", "coordinates": [ -71.074089000330417, 45.484464000145884 ] } },
{ "type": "Feature", "properties": { "MUN_ID": "MU_1258", "MRC_ID": "MRC_41", "nomcartrou": "Bury", "mus_nm_mun": "Bury" }, "geometry": { "type": "Point", "coordinates": [ -71.503519000154824, 45.473610001672498 ] } },
{ "type": "Feature", "properties": { "MUN_ID": "MU_1266", "MRC_ID": "MRC_42", "nomcartrou": "Saint-Denis-de-Brompton", "mus_nm_mun": "Saint-Denis-de-Brompton" }, "geometry": { "type": "Point", "coordinates": [ -72.080254000727876, 45.45778800079664 ] } },
{ "type": "Feature", "properties": { "MUN_ID": "MU_541", "MRC_ID": "MRC_67", "nomcartrou": "Sainte-Catherine", "mus_nm_mun": "Sainte-Catherine" }, "geometry": { "type": "Point", "coordinates": [ -73.576303999750706, 45.400471000893504 ] } },
{ "type": "Feature", "properties": { "MUN_ID": "MU_595", "MRC_ID": "MRC_71", "nomcartrou": "Pincourt", "mus_nm_mun": "Pincourt" }, "geometry": { "type": "Point", "coordinates": [ -73.990656999890788, 45.379493000802903 ] } },
{ "type": "Feature", "properties": { "MUN_ID": "MU_414", "MRC_ID": "MRC_55", "nomcartrou": "Saint-Paul-d'Abbotsford", "mus_nm_mun": "Saint-Paul-d'Abbotsford" }, "geometry": { "type": "Point", "coordinates": [ -72.878939000349249, 45.436422001028703 ] } },
{ "type": "Feature", "properties": { "MUN_ID": "MU_1340", "MRC_ID": "MRC_47", "nomcartrou": "Saint-Joachim-de-Shefford", "mus_nm_mun": "Saint-Joachim-de-Shefford" }, "geometry": { "type": "Point", "coordinates": [ -72.525538998795923, 45.452020000207398 ] } },
{ "type": "Feature", "properties": { "MUN_ID": "MU_1283", "MRC_ID": "MRC_43", "nomcartrou": "Brompton", "mus_nm_mun": "Sherbrooke" }, "geometry": { "type": "Point", "coordinates": [ -71.942948000541378, 45.474973000240531 ] } },
{ "type": "Feature", "properties": { "MUN_ID": "MU_1256", "MRC_ID": "MRC_41", "nomcartrou": "East Angus", "mus_nm_mun": "East Angus" }, "geometry": { "type": "Point", "coordinates": [ -71.659675999524111, 45.484905002215683 ] } },
{ "type": "Feature", "properties": { "MUN_ID": "MU_417", "MRC_ID": "MRC_55", "nomcartrou": "Rougemont", "mus_nm_mun": "Rougemont" }, "geometry": { "type": "Point", "coordinates": [ -73.05038999914666, 45.433253001395038 ] } },
{ "type": "Feature", "properties": { "MUN_ID": "MU_593", "MRC_ID": "MRC_71", "nomcartrou": "L'Île-Perrot", "mus_nm_mun": "L'Île-Perrot" }, "geometry": { "type": "Point", "coordinates": [ -73.963902999504612, 45.389356001693294 ] } },
{ "type": "Feature", "properties": { "MUN_ID": "MU_538", "MRC_ID": "MRC_67", "nomcartrou": "La Prairie", "mus_nm_mun": "La Prairie" }, "geometry": { "type": "Point", "coordinates": [ -73.488875999790906, 45.416508000458016 ] } },
{ "type": "Feature", "properties": { "MUN_ID": "MU_596", "MRC_ID": "MRC_71", "nomcartrou": "Terrasse-Vaudreuil", "mus_nm_mun": "Terrasse-Vaudreuil" }, "geometry": { "type": "Point", "coordinates": [ -73.987143000498307, 45.390807000518798 ] } },
{ "type": "Feature", "properties": { "MUN_ID": "MU_418", "MRC_ID": "MRC_55", "nomcartrou": "Marieville", "mus_nm_mun": "Marieville" }, "geometry": { "type": "Point", "coordinates": [ -73.159995999353072, 45.432583000917333 ] } },
{ "type": "Feature", "properties": { "MUN_ID": "MU_547", "MRC_ID": "MRC_67", "nomcartrou": "Kahnawake", "mus_nm_mun": "Kahnawake" }, "geometry": { "type": "Point", "coordinates": [ -73.676825999626288, 45.414074000950798 ] } },
{ "type": "Feature", "properties": { "MUN_ID": "MU_739", "MRC_ID": "MRC_71", "nomcartrou": "Sainte-Justine-de-Newton", "mus_nm_mun": "Sainte-Justine-de-Newton" }, "geometry": { "type": "Point", "coordinates": [ -74.408354001026808, 45.374301000577667 ] } },
{ "type": "Feature", "properties": { "MUN_ID": "MU_531", "MRC_ID": "MRC_66", "nomcartrou": "Sainte-Anne-de-Bellevue", "mus_nm_mun": "Sainte-Anne-de-Bellevue" }, "geometry": { "type": "Point", "coordinates": [ -73.950377001333138, 45.403272001257093 ] } },
{ "type": "Feature", "properties": { "MUN_ID": "MU_530", "MRC_ID": "MRC_66", "nomcartrou": "Baie-D'Urfé", "mus_nm_mun": "Baie-D'Urfé" }, "geometry": { "type": "Point", "coordinates": [ -73.915527999833074, 45.408587000883266 ] } },
{ "type": "Feature", "properties": { "MUN_ID": "MU_419", "MRC_ID": "MRC_55", "nomcartrou": "Richelieu", "mus_nm_mun": "Richelieu" }, "geometry": { "type": "Point", "coordinates": [ -73.251994000992042, 45.443399000909899 ] } },
{ "type": "Feature", "properties": { "MUN_ID": "MU_737", "MRC_ID": "MRC_71", "nomcartrou": "Saint-Lazare", "mus_nm_mun": "Saint-Lazare" }, "geometry": { "type": "Point", "coordinates": [ -74.140201999549774, 45.400112000506937 ] } },
{ "type": "Feature", "properties": { "MUN_ID": "MU_597", "MRC_ID": "MRC_71", "nomcartrou": "Vaudreuil-Dorion", "mus_nm_mun": "Vaudreuil-Dorion" }, "geometry": { "type": "Point", "coordinates": [ -74.033177000228903, 45.406013001818742 ] } },
{ "type": "Feature", "properties": { "MUN_ID": "MU_532", "MRC_ID": "MRC_66", "nomcartrou": "Senneville", "mus_nm_mun": "Senneville" }, "geometry": { "type": "Point", "coordinates": [ -73.958145000195799, 45.411290001327473 ] } },
{ "type": "Feature", "properties": { "MUN_ID": "MU_1341", "MRC_ID": "MRC_47", "nomcartrou": "Roxton Pond", "mus_nm_mun": "Roxton Pond" }, "geometry": { "type": "Point", "coordinates": [ -72.660316000895477, 45.475148000972197 ] } },
{ "type": "Feature", "properties": { "MUN_ID": "MU_519", "MRC_ID": "MRC_66", "nomcartrou": "LaSalle", "mus_nm_mun": "Montréal" }, "geometry": { "type": "Point", "coordinates": [ -73.634908000444881, 45.43059400109447 ] } },
{ "type": "Feature", "properties": { "MUN_ID": "MU_435", "MRC_ID": "MRC_57", "nomcartrou": "Chambly", "mus_nm_mun": "Chambly" }, "geometry": { "type": "Point", "coordinates": [ -73.293609000669505, 45.448394000461001 ] } },
{ "type": "Feature", "properties": { "MUN_ID": "MU_1260", "MRC_ID": "MRC_41", "nomcartrou": "Scotstown", "mus_nm_mun": "Scotstown" }, "geometry": { "type": "Point", "coordinates": [ -71.2778789998018, 45.524919001001919 ] } },
{ "type": "Feature", "properties": { "MUN_ID": "MU_436", "MRC_ID": "MRC_57", "nomcartrou": "Carignan", "mus_nm_mun": "Carignan" }, "geometry": { "type": "Point", "coordinates": [ -73.311241999366175, 45.451354000352318 ] } },
{ "type": "Feature", "properties": { "MUN_ID": "MU_519", "MRC_ID": "MRC_66", "nomcartrou": "Lachine", "mus_nm_mun": "Montréal" }, "geometry": { "type": "Point", "coordinates": [ -73.692030000242966, 45.433617000697659 ] } },
{ "type": "Feature", "properties": { "MUN_ID": "MU_1341", "MRC_ID": "MRC_47", "nomcartrou": "Roxton-Sud", "mus_nm_mun": "Roxton Pond" }, "geometry": { "type": "Point", "coordinates": [ -72.596287000985114, 45.485016000510512 ] } },
{ "type": "Feature", "properties": { "MUN_ID": "MU_1271", "MRC_ID": "MRC_42", "nomcartrou": "Valcourt", "mus_nm_mun": "Valcourt" }, "geometry": { "type": "Point", "coordinates": [ -72.315161000183863, 45.496437999989539 ] } },
{ "type": "Feature", "properties": { "MUN_ID": "MU_526", "MRC_ID": "MRC_66", "nomcartrou": "L'Île-Dorval", "mus_nm_mun": "L'Île-Dorval" }, "geometry": { "type": "Point", "coordinates": [ -73.741098000866074, 45.432894000927739 ] } },
{ "type": "Feature", "properties": { "MUN_ID": "MU_738", "MRC_ID": "MRC_71", "nomcartrou": "Sainte-Marthe", "mus_nm_mun": "Sainte-Marthe" }, "geometry": { "type": "Point", "coordinates": [ -74.297119999936342, 45.405815001552916 ] } },
{ "type": "Feature", "properties": { "MUN_ID": "MU_1342", "MRC_ID": "MRC_47", "nomcartrou": "Sainte-Cécile-de-Milton", "mus_nm_mun": "Sainte-Cécile-de-Milton" }, "geometry": { "type": "Point", "coordinates": [ -72.744271000159685, 45.482996001112134 ] } },
{ "type": "Feature", "properties": { "MUN_ID": "MU_529", "MRC_ID": "MRC_66", "nomcartrou": "Beaconsfield", "mus_nm_mun": "Beaconsfield" }, "geometry": { "type": "Point", "coordinates": [ -73.845908999827813, 45.431100000707751 ] } },
{ "type": "Feature", "properties": { "MUN_ID": "MU_1267", "MRC_ID": "MRC_42", "nomcartrou": "Racine", "mus_nm_mun": "Racine" }, "geometry": { "type": "Point", "coordinates": [ -72.25213199921069, 45.503484001692037 ] } },
{ "type": "Feature", "properties": { "MUN_ID": "MU_598", "MRC_ID": "MRC_71", "nomcartrou": "Vaudreuil-sur-le-Lac", "mus_nm_mun": "Vaudreuil-sur-le-Lac" }, "geometry": { "type": "Point", "coordinates": [ -74.034928000498653, 45.422701001306187 ] } },
{ "type": "Feature", "properties": { "MUN_ID": "MU_525", "MRC_ID": "MRC_66", "nomcartrou": "Dorval", "mus_nm_mun": "Dorval" }, "geometry": { "type": "Point", "coordinates": [ -73.739674999084201, 45.438976001812101 ] } },
{ "type": "Feature", "properties": { "MUN_ID": "MU_519", "MRC_ID": "MRC_66", "nomcartrou": "Saint-Pierre", "mus_nm_mun": "Montréal" }, "geometry": { "type": "Point", "coordinates": [ -73.645069000107839, 45.445583000526007 ] } },
{ "type": "Feature", "properties": { "MUN_ID": "MU_448", "MRC_ID": "MRC_58", "nomcartrou": "Brossard", "mus_nm_mun": "Brossard" }, "geometry": { "type": "Point", "coordinates": [ -73.465193000077164, 45.455008001817056 ] } },
{ "type": "Feature", "properties": { "MUN_ID": "MU_1343", "MRC_ID": "MRC_48", "nomcartrou": "Béthanie", "mus_nm_mun": "Béthanie" }, "geometry": { "type": "Point", "coordinates": [ -72.437129999761027, 45.50276500185317 ] } },
{ "type": "Feature", "properties": { "MUN_ID": "MU_1096", "MRC_ID": "MRC_30", "nomcartrou": "Marston", "mus_nm_mun": "Marston" }, "geometry": { "type": "Point", "coordinates": [ -70.946731999753439, 45.551715001043597 ] } },
{ "type": "Feature", "properties": { "MUN_ID": "MU_599", "MRC_ID": "MRC_71", "nomcartrou": "L'Île-Cadieux", "mus_nm_mun": "L'Île-Cadieux" }, "geometry": { "type": "Point", "coordinates": [ -74.019001000202095, 45.432627000662592 ] } },
{ "type": "Feature", "properties": { "MUN_ID": "MU_521", "MRC_ID": "MRC_66", "nomcartrou": "Montréal-Ouest", "mus_nm_mun": "Montréal-Ouest" }, "geometry": { "type": "Point", "coordinates": [ -73.644388999108301, 45.452500001168026 ] } },
{ "type": "Feature", "properties": { "MUN_ID": "MU_519", "MRC_ID": "MRC_66", "nomcartrou": "Verdun", "mus_nm_mun": "Montréal" }, "geometry": { "type": "Point", "coordinates": [ -73.571739999586612, 45.458615000548249 ] } },
{ "type": "Feature", "properties": { "MUN_ID": "MU_420", "MRC_ID": "MRC_55", "nomcartrou": "Saint-Mathias-sur-Richelieu", "mus_nm_mun": "Saint-Mathias-sur-Richelieu" }, "geometry": { "type": "Point", "coordinates": [ -73.268590999571813, 45.474423001240766 ] } },
{ "type": "Feature", "properties": { "MUN_ID": "MU_1264", "MRC_ID": "MRC_42", "nomcartrou": "Stoke", "mus_nm_mun": "Stoke" }, "geometry": { "type": "Point", "coordinates": [ -71.80497599919525, 45.533370001409658 ] } },
{ "type": "Feature", "properties": { "MUN_ID": "MU_527", "MRC_ID": "MRC_66", "nomcartrou": "Pointe-Claire", "mus_nm_mun": "Pointe-Claire" }, "geometry": { "type": "Point", "coordinates": [ -73.818130000991658, 45.449373000832246 ] } },
{ "type": "Feature", "properties": { "MUN_ID": "MU_528", "MRC_ID": "MRC_66", "nomcartrou": "Kirkland", "mus_nm_mun": "Kirkland" }, "geometry": { "type": "Point", "coordinates": [ -73.855887999764775, 45.449434001293824 ] } },
{ "type": "Feature", "properties": { "MUN_ID": "MU_1265", "MRC_ID": "MRC_42", "nomcartrou": "Saint-François-Xavier-de-Brompton", "mus_nm_mun": "Saint-François-Xavier-de-Brompton" }, "geometry": { "type": "Point", "coordinates": [ -72.048829999366632, 45.533745001412768 ] } },
{ "type": "Feature", "properties": { "MUN_ID": "MU_522", "MRC_ID": "MRC_66", "nomcartrou": "Côte-Saint-Luc", "mus_nm_mun": "Côte-Saint-Luc" }, "geometry": { "type": "Point", "coordinates": [ -73.653010000591806, 45.466594001253206 ] } },
{ "type": "Feature", "properties": { "MUN_ID": "MU_736", "MRC_ID": "MRC_71", "nomcartrou": "Como", "mus_nm_mun": "Hudson" }, "geometry": { "type": "Point", "coordinates": [ -74.105276000263359, 45.442663000737639 ] } },
{ "type": "Feature", "properties": { "MUN_ID": "MU_396", "MRC_ID": "MRC_54", "nomcartrou": "Saint-Pie", "mus_nm_mun": "Saint-Pie" }, "geometry": { "type": "Point", "coordinates": [ -72.909106999315739, 45.502090001351277 ] } },
{ "type": "Feature", "properties": { "MUN_ID": "MU_1094", "MRC_ID": "MRC_30", "nomcartrou": "Frontenac", "mus_nm_mun": "Frontenac" }, "geometry": { "type": "Point", "coordinates": [ -70.831333000593716, 45.57147300115988 ] } },
{ "type": "Feature", "properties": { "MUN_ID": "MU_1095", "MRC_ID": "MRC_30", "nomcartrou": "Lac-Mégantic", "mus_nm_mun": "Lac-Mégantic" }, "geometry": { "type": "Point", "coordinates": [ -70.880324000282641, 45.572646000983212 ] } },
{ "type": "Feature", "properties": { "MUN_ID": "MU_740", "MRC_ID": "MRC_71", "nomcartrou": "Très-Saint-Rédempteur", "mus_nm_mun": "Très-Saint-Rédempteur" }, "geometry": { "type": "Point", "coordinates": [ -74.386571999489689, 45.43326500121934 ] } },
{ "type": "Feature", "properties": { "MUN_ID": "MU_519", "MRC_ID": "MRC_66", "nomcartrou": "Hampstead", "mus_nm_mun": "Hampstead" }, "geometry": { "type": "Point", "coordinates": [ -73.63657400040826, 45.476787001691449 ] } },
{ "type": "Feature", "properties": { "MUN_ID": "MU_520", "MRC_ID": "MRC_66", "nomcartrou": "Westmount", "mus_nm_mun": "Westmount" }, "geometry": { "type": "Point", "coordinates": [ -73.60347200030678, 45.478994000462883 ] } },
{ "type": "Feature", "properties": { "MUN_ID": "MU_452", "MRC_ID": "MRC_58", "nomcartrou": "Greenfield Park", "mus_nm_mun": "Longueuil" }, "geometry": { "type": "Point", "coordinates": [ -73.48735000048228, 45.49154000124053 ] } },
{ "type": "Feature", "properties": { "MUN_ID": "MU_749", "MRC_ID": "MRC_72", "nomcartrou": "Oka", "mus_nm_mun": "Oka" }, "geometry": { "type": "Point", "coordinates": [ -74.090082999548272, 45.460576001233775 ] } },
{ "type": "Feature", "properties": { "MUN_ID": "MU_736", "MRC_ID": "MRC_71", "nomcartrou": "Hudson", "mus_nm_mun": "Hudson" }, "geometry": { "type": "Point", "coordinates": [ -74.140649999715706, 45.458524000478434 ] } },
{ "type": "Feature", "properties": { "MUN_ID": "MU_452", "MRC_ID": "MRC_58", "nomcartrou": "Saint-Hubert", "mus_nm_mun": "Longueuil" }, "geometry": { "type": "Point", "coordinates": [ -73.423423000405393, 45.501600000882171 ] } },
{ "type": "Feature", "properties": { "MUN_ID": "MU_519", "MRC_ID": "MRC_66", "nomcartrou": "Sainte-Geneviève", "mus_nm_mun": "Montréal" }, "geometry": { "type": "Point", "coordinates": [ -73.86974600026241, 45.481448001696748 ] } },
{ "type": "Feature", "properties": { "MUN_ID": "MU_1097", "MRC_ID": "MRC_30", "nomcartrou": "Milan", "mus_nm_mun": "Milan" }, "geometry": { "type": "Point", "coordinates": [ -71.122986000486563, 45.58941400104532 ] } },
{ "type": "Feature", "properties": { "MUN_ID": "MU_452", "MRC_ID": "MRC_58", "nomcartrou": "LeMoyne", "mus_nm_mun": "Longueuil" }, "geometry": { "type": "Point", "coordinates": [ -73.492173999887044, 45.502354001071105 ] } },
{ "type": "Feature", "properties": { "MUN_ID": "MU_449", "MRC_ID": "MRC_58", "nomcartrou": "Saint-Lambert", "mus_nm_mun": "Saint-Lambert" }, "geometry": { "type": "Point", "coordinates": [ -73.51132699994686, 45.501420001131628 ] } },
{ "type": "Feature", "properties": { "MUN_ID": "MU_533", "MRC_ID": "MRC_66", "nomcartrou": "Dollard-des-Ormeaux", "mus_nm_mun": "Dollard-des-Ormeaux" }, "geometry": { "type": "Point", "coordinates": [ -73.800047000778889, 45.487218001311973 ] } },
{ "type": "Feature", "properties": { "MUN_ID": "MU_440", "MRC_ID": "MRC_57", "nomcartrou": "Saint-Jean-Baptiste", "mus_nm_mun": "Saint-Jean-Baptiste" }, "geometry": { "type": "Point", "coordinates": [ -73.123853999997124, 45.520564001055625 ] } },
{ "type": "Feature", "properties": { "MUN_ID": "MU_397", "MRC_ID": "MRC_54", "nomcartrou": "Saint-Damase", "mus_nm_mun": "Saint-Damase" }, "geometry": { "type": "Point", "coordinates": [ -73.008393998998741, 45.52667200193936 ] } },
{ "type": "Feature", "properties": { "MUN_ID": "MU_519", "MRC_ID": "MRC_66", "nomcartrou": "L'Île-Bizard", "mus_nm_mun": "Montréal" }, "geometry": { "type": "Point", "coordinates": [ -73.878963999629036, 45.486411000679269 ] } },
{ "type": "Feature", "properties": { "MUN_ID": "MU_1277", "MRC_ID": "MRC_42", "nomcartrou": "Windsor", "mus_nm_mun": "Windsor" }, "geometry": { "type": "Point", "coordinates": [ -72.006233000190051, 45.568499000043069 ] } },
{ "type": "Feature", "properties": { "MUN_ID": "MU_1263", "MRC_ID": "MRC_41", "nomcartrou": "Dudswell", "mus_nm_mun": "Dudswell" }, "geometry": { "type": "Point", "coordinates": [ -71.575521999522948, 45.583605001085004 ] } },
{ "type": "Feature", "properties": { "MUN_ID": "MU_519", "MRC_ID": "MRC_66", "nomcartrou": "Montréal", "mus_nm_mun": "Montréal" }, "geometry": { "type": "Point", "coordinates": [ -73.556644998768945, 45.504927000848362 ] } },
{ "type": "Feature", "properties": { "MUN_ID": "MU_519", "MRC_ID": "MRC_66", "nomcartrou": "Pierrefonds", "mus_nm_mun": "Montréal" }, "geometry": { "type": "Point", "coordinates": [ -73.851958000878355, 45.49186700059844 ] } },
{ "type": "Feature", "properties": { "MUN_ID": "MU_1273", "MRC_ID": "MRC_42", "nomcartrou": "Maricourt", "mus_nm_mun": "Maricourt" }, "geometry": { "type": "Point", "coordinates": [ -72.263758999470909, 45.563576002241824 ] } },
{ "type": "Feature", "properties": { "MUN_ID": "MU_1261", "MRC_ID": "MRC_41", "nomcartrou": "Gould", "mus_nm_mun": "Lingwick" }, "geometry": { "type": "Point", "coordinates": [ -71.375380000390209, 45.59260800133039 ] } },
{ "type": "Feature", "properties": { "MUN_ID": "MU_437", "MRC_ID": "MRC_57", "nomcartrou": "Saint-Basile-le-Grand", "mus_nm_mun": "Saint-Basile-le-Grand" }, "geometry": { "type": "Point", "coordinates": [ -73.287298000915598, 45.526681001363066 ] } },
{ "type": "Feature", "properties": { "MUN_ID": "MU_749", "MRC_ID": "MRC_72", "nomcartrou": "Kanesatake", "mus_nm_mun": "Kanesatake" }, "geometry": { "type": "Point", "coordinates": [ -74.131004998798744, 45.48585100076162 ] } },
{ "type": "Feature", "properties": { "MUN_ID": "MU_519", "MRC_ID": "MRC_66", "nomcartrou": "Outremont", "mus_nm_mun": "Montréal" }, "geometry": { "type": "Point", "coordinates": [ -73.598278000067154, 45.516091000563719 ] } },
{ "type": "Feature", "properties": { "MUN_ID": "MU_524", "MRC_ID": "MRC_66", "nomcartrou": "Mont-Royal", "mus_nm_mun": "Mont-Royal" }, "geometry": { "type": "Point", "coordinates": [ -73.64439900022812, 45.51418800166806 ] } },
{ "type": "Feature", "properties": { "MUN_ID": "MU_741", "MRC_ID": "MRC_71", "nomcartrou": "Rigaud", "mus_nm_mun": "Rigaud" }, "geometry": { "type": "Point", "coordinates": [ -74.302226000171061, 45.479215000913022 ] } },
{ "type": "Feature", "properties": { "MUN_ID": "MU_451", "MRC_ID": "MRC_58", "nomcartrou": "Saint-Bruno-de-Montarville", "mus_nm_mun": "Saint-Bruno-de-Montarville" }, "geometry": { "type": "Point", "coordinates": [ -73.345368999894163, 45.529899001114785 ] } },
{ "type": "Feature", "properties": { "MUN_ID": "MU_747", "MRC_ID": "MRC_72", "nomcartrou": "Pointe-Calumet", "mus_nm_mun": "Pointe-Calumet" }, "geometry": { "type": "Point", "coordinates": [ -73.969907999628703, 45.498526000459172 ] } },
{ "type": "Feature", "properties": { "MUN_ID": "MU_519", "MRC_ID": "MRC_66", "nomcartrou": "Saint-Laurent", "mus_nm_mun": "Montréal" }, "geometry": { "type": "Point", "coordinates": [ -73.682761000110048, 45.514170000687983 ] } },
{ "type": "Feature", "properties": { "MUN_ID": "MU_519", "MRC_ID": "MRC_66", "nomcartrou": "Roxboro", "mus_nm_mun": "Montréal" }, "geometry": { "type": "Point", "coordinates": [ -73.817612000548124, 45.510198001063891 ] } },
{ "type": "Feature", "properties": { "MUN_ID": "MU_1261", "MRC_ID": "MRC_41", "nomcartrou": "Lingwick", "mus_nm_mun": "Lingwick" }, "geometry": { "type": "Point", "coordinates": [ -71.353330000673651, 45.609607001490581 ] } },
{ "type": "Feature", "properties": { "MUN_ID": "MU_439", "MRC_ID": "MRC_57", "nomcartrou": "Otterburn Park", "mus_nm_mun": "Otterburn Park" }, "geometry": { "type": "Point", "coordinates": [ -73.217518000188235, 45.541348001513299 ] } },
{ "type": "Feature", "properties": { "MUN_ID": "MU_1274", "MRC_ID": "MRC_42", "nomcartrou": "Kingsbury", "mus_nm_mun": "Kingsbury" }, "geometry": { "type": "Point", "coordinates": [ -72.139729000469117, 45.58607600042005 ] } },
{ "type": "Feature", "properties": { "MUN_ID": "MU_403", "MRC_ID": "MRC_54", "nomcartrou": "Saint-Valérien-de-Milton", "mus_nm_mun": "Saint-Valérien-de-Milton" }, "geometry": { "type": "Point", "coordinates": [ -72.712895999995965, 45.564701001542474 ] } },
{ "type": "Feature", "properties": { "MUN_ID": "MU_1344", "MRC_ID": "MRC_48", "nomcartrou": "Roxton Falls", "mus_nm_mun": "Roxton Falls" }, "geometry": { "type": "Point", "coordinates": [ -72.522916999973589, 45.572868000920231 ] } },
{ "type": "Feature", "properties": { "MUN_ID": "MU_452", "MRC_ID": "MRC_58", "nomcartrou": "Longueuil", "mus_nm_mun": "Longueuil" }, "geometry": { "type": "Point", "coordinates": [ -73.485221999595453, 45.530885000661051 ] } },
{ "type": "Feature", "properties": { "MUN_ID": "MU_1278", "MRC_ID": "MRC_42", "nomcartrou": "Val-Joli", "mus_nm_mun": "Val-Joli" }, "geometry": { "type": "Point", "coordinates": [ -71.961848999083912, 45.595426000678295 ] } },
{ "type": "Feature", "properties": { "MUN_ID": "MU_402", "MRC_ID": "MRC_54", "nomcartrou": "Saint-Dominique", "mus_nm_mun": "Saint-Dominique" }, "geometry": { "type": "Point", "coordinates": [ -72.853737000036574, 45.564981999999056 ] } },
{ "type": "Feature", "properties": { "MUN_ID": "MU_438", "MRC_ID": "MRC_57", "nomcartrou": "McMasterville", "mus_nm_mun": "McMasterville" }, "geometry": { "type": "Point", "coordinates": [ -73.223005000396014, 45.548582000683908 ] } },
{ "type": "Feature", "properties": { "MUN_ID": "MU_862", "MRC_ID": "MRC_81", "nomcartrou": "Aylmer", "mus_nm_mun": "Gatineau" }, "geometry": { "type": "Point", "coordinates": [ -75.844391000311916, 45.394952001034795 ] } },
{ "type": "Feature", "properties": { "MUN_ID": "MU_1098", "MRC_ID": "MRC_30", "nomcartrou": "Nantes", "mus_nm_mun": "Nantes" }, "geometry": { "type": "Point", "coordinates": [ -71.020949000440879, 45.630176000977265 ] } },
{ "type": "Feature", "properties": { "MUN_ID": "MU_442", "MRC_ID": "MRC_57", "nomcartrou": "Belœil", "mus_nm_mun": "Beloeil" }, "geometry": { "type": "Point", "coordinates": [ -73.208679000570712, 45.559573001143917 ] } },
{ "type": "Feature", "properties": { "MUN_ID": "MU_441", "MRC_ID": "MRC_57", "nomcartrou": "Mont-Saint-Hilaire", "mus_nm_mun": "Mont-Saint-Hilaire" }, "geometry": { "type": "Point", "coordinates": [ -73.186380000361012, 45.563414001044201 ] } },
{ "type": "Feature", "properties": { "MUN_ID": "MU_746", "MRC_ID": "MRC_72", "nomcartrou": "Sainte-Marthe-sur-le-Lac", "mus_nm_mun": "Sainte-Marthe-sur-le-Lac" }, "geometry": { "type": "Point", "coordinates": [ -73.93295300031437, 45.52918600092341 ] } },
{ "type": "Feature", "properties": { "MUN_ID": "MU_1263", "MRC_ID": "MRC_41", "nomcartrou": "Marbleton", "mus_nm_mun": "Dudswell" }, "geometry": { "type": "Point", "coordinates": [ -71.58507500099725, 45.627448001161106 ] } },
{ "type": "Feature", "properties": { "MUN_ID": "MU_1100", "MRC_ID": "MRC_30", "nomcartrou": "Audet", "mus_nm_mun": "Audet" }, "geometry": { "type": "Point", "coordinates": [ -70.735636000423142, 45.65625400078595 ] } },
{ "type": "Feature", "properties": { "MUN_ID": "MU_1263", "MRC_ID": "MRC_41", "nomcartrou": "Saint-Adolphe-de-Dudswell", "mus_nm_mun": "Dudswell" }, "geometry": { "type": "Point", "coordinates": [ -71.591622000464042, 45.63445500172427 ] } },
{ "type": "Feature", "properties": { "MUN_ID": "MU_748", "MRC_ID": "MRC_72", "nomcartrou": "Saint-Joseph-du-Lac", "mus_nm_mun": "Saint-Joseph-du-Lac" }, "geometry": { "type": "Point", "coordinates": [ -74.006032000002037, 45.533456001337541 ] } },
{ "type": "Feature", "properties": { "MUN_ID": "MU_862", "MRC_ID": "MRC_81", "nomcartrou": "Hull", "mus_nm_mun": "Gatineau" }, "geometry": { "type": "Point", "coordinates": [ -75.710681000333366, 45.427242000817067 ] } },
{ "type": "Feature", "properties": { "MUN_ID": "MU_745", "MRC_ID": "MRC_72", "nomcartrou": "Deux-Montagnes", "mus_nm_mun": "Deux-Montagnes" }, "geometry": { "type": "Point", "coordinates": [ -73.893356000075187, 45.541018000933597 ] } },
{ "type": "Feature", "properties": { "MUN_ID": "MU_517", "MRC_ID": "MRC_65", "nomcartrou": "Laval", "mus_nm_mun": "Laval" }, "geometry": { "type": "Point", "coordinates": [ -73.745861999234464, 45.551481001078436 ] } },
{ "type": "Feature", "properties": { "MUN_ID": "MU_750", "MRC_ID": "MRC_72", "nomcartrou": "Saint-Placide", "mus_nm_mun": "Saint-Placide" }, "geometry": { "type": "Point", "coordinates": [ -74.206433000987587, 45.529429001322612 ] } },
{ "type": "Feature", "properties": { "MUN_ID": "MU_308", "MRC_ID": "MRC_48", "nomcartrou": "Sainte-Christine", "mus_nm_mun": "Sainte-Christine" }, "geometry": { "type": "Point", "coordinates": [ -72.42862499933166, 45.615319000789071 ] } },
{ "type": "Feature", "properties": { "MUN_ID": "MU_399", "MRC_ID": "MRC_54", "nomcartrou": "Sainte-Marie-Madeleine", "mus_nm_mun": "Sainte-Marie-Madeleine" }, "geometry": { "type": "Point", "coordinates": [ -73.126946000580162, 45.588123001043847 ] } },
{ "type": "Feature", "properties": { "MUN_ID": "MU_1099", "MRC_ID": "MRC_30", "nomcartrou": "Sainte-Cécile-de-Whitton", "mus_nm_mun": "Sainte-Cécile-de-Whitton" }, "geometry": { "type": "Point", "coordinates": [ -70.941041000879878, 45.667352001402627 ] } },
{ "type": "Feature", "properties": { "MUN_ID": "MU_398", "MRC_ID": "MRC_54", "nomcartrou": "Sainte-Madeleine", "mus_nm_mun": "Sainte-Madeleine" }, "geometry": { "type": "Point", "coordinates": [ -73.093728998734932, 45.594746001375327 ] } },
{ "type": "Feature", "properties": { "MUN_ID": "MU_744", "MRC_ID": "MRC_72", "nomcartrou": "Saint-Eustache", "mus_nm_mun": "Saint-Eustache" }, "geometry": { "type": "Point", "coordinates": [ -73.889259999431033, 45.5576630005624 ] } },
{ "type": "Feature", "properties": { "MUN_ID": "MU_453", "MRC_ID": "MRC_59", "nomcartrou": "Sainte-Julie", "mus_nm_mun": "Sainte-Julie" }, "geometry": { "type": "Point", "coordinates": [ -73.338902001338369, 45.593762000512868 ] } },
{ "type": "Feature", "properties": { "MUN_ID": "MU_1281", "MRC_ID": "MRC_42", "nomcartrou": "Cleveland", "mus_nm_mun": "Cleveland" }, "geometry": { "type": "Point", "coordinates": [ -72.13354900016526, 45.643935000356194 ] } },
{ "type": "Feature", "properties": { "MUN_ID": "MU_1275", "MRC_ID": "MRC_42", "nomcartrou": "Melbourne", "mus_nm_mun": "Melbourne" }, "geometry": { "type": "Point", "coordinates": [ -72.140326999146524, 45.644666000850037 ] } },
{ "type": "Feature", "properties": { "MUN_ID": "MU_519", "MRC_ID": "MRC_66", "nomcartrou": "Saint-Léonard", "mus_nm_mun": "Montréal" }, "geometry": { "type": "Point", "coordinates": [ -73.596950000063572, 45.587460000811525 ] } },
{ "type": "Feature", "properties": { "MUN_ID": "MU_443", "MRC_ID": "MRC_57", "nomcartrou": "Saint-Mathieu-de-Belœil", "mus_nm_mun": "Saint-Mathieu-de-Beloeil" }, "geometry": { "type": "Point", "coordinates": [ -73.247874000318816, 45.605020000797175 ] } },
{ "type": "Feature", "properties": { "MUN_ID": "MU_1280", "MRC_ID": "MRC_42", "nomcartrou": "Saint-Claude", "mus_nm_mun": "Saint-Claude" }, "geometry": { "type": "Point", "coordinates": [ -71.977008000134248, 45.658811001571713 ] } },
{ "type": "Feature", "properties": { "MUN_ID": "MU_401", "MRC_ID": "MRC_54", "nomcartrou": "Saint-Hyacinthe", "mus_nm_mun": "Saint-Hyacinthe" }, "geometry": { "type": "Point", "coordinates": [ -72.946042000475856, 45.624365000979765 ] } },
{ "type": "Feature", "properties": { "MUN_ID": "MU_519", "MRC_ID": "MRC_66", "nomcartrou": "Montréal-Nord", "mus_nm_mun": "Montréal" }, "geometry": { "type": "Point", "coordinates": [ -73.639237999107024, 45.592782001446629 ] } },
{ "type": "Feature", "properties": { "MUN_ID": "MU_1279", "MRC_ID": "MRC_42", "nomcartrou": "Richmond", "mus_nm_mun": "Richmond" }, "geometry": { "type": "Point", "coordinates": [ -72.142032999787503, 45.658344001758927 ] } },
{ "type": "Feature", "properties": { "MUN_ID": "MU_759", "MRC_ID": "MRC_74", "nomcartrou": "Saint-Benoît", "mus_nm_mun": "Mirabel" }, "geometry": { "type": "Point", "coordinates": [ -74.099550000137683, 45.570904000499205 ] } },
{ "type": "Feature", "properties": { "MUN_ID": "MU_519", "MRC_ID": "MRC_66", "nomcartrou": "Anjou", "mus_nm_mun": "Montréal" }, "geometry": { "type": "Point", "coordinates": [ -73.568844000113344, 45.599178000340224 ] } },
{ "type": "Feature", "properties": { "MUN_ID": "MU_742", "MRC_ID": "MRC_71", "nomcartrou": "Pointe-Fortune", "mus_nm_mun": "Pointe-Fortune" }, "geometry": { "type": "Point", "coordinates": [ -74.378007000844136, 45.56033400100776 ] } },
{ "type": "Feature", "properties": { "MUN_ID": "MU_766", "MRC_ID": "MRC_76", "nomcartrou": "Saint-André-d'Argenteuil", "mus_nm_mun": "Saint-André-d'Argenteuil" }, "geometry": { "type": "Point", "coordinates": [ -74.336159999568352, 45.562771001030974 ] } },
{ "type": "Feature", "properties": { "MUN_ID": "MU_450", "MRC_ID": "MRC_58", "nomcartrou": "Boucherville", "mus_nm_mun": "Boucherville" }, "geometry": { "type": "Point", "coordinates": [ -73.456534999388253, 45.610121000337507 ] } },
{ "type": "Feature", "properties": { "MUN_ID": "MU_1262", "MRC_ID": "MRC_41", "nomcartrou": "Fontainebleau", "mus_nm_mun": "Weedon" }, "geometry": { "type": "Point", "coordinates": [ -71.389949999429319, 45.691287000793366 ] } },
{ "type": "Feature", "properties": { "MUN_ID": "MU_309", "MRC_ID": "MRC_48", "nomcartrou": "Acton Vale", "mus_nm_mun": "Acton Vale" }, "geometry": { "type": "Point", "coordinates": [ -72.562247000048856, 45.651445001781894 ] } },
{ "type": "Feature", "properties": { "MUN_ID": "MU_314", "MRC_ID": "MRC_49", "nomcartrou": "Durham-Sud", "mus_nm_mun": "Durham-Sud" }, "geometry": { "type": "Point", "coordinates": [ -72.34013900080879, 45.66037000161618 ] } },
{ "type": "Feature", "properties": { "MUN_ID": "MU_1246", "MRC_ID": "MRC_40", "nomcartrou": "Saint-Camille", "mus_nm_mun": "Saint-Camille" }, "geometry": { "type": "Point", "coordinates": [ -71.70369699959997, 45.683333001868178 ] } },
{ "type": "Feature", "properties": { "MUN_ID": "MU_862", "MRC_ID": "MRC_81", "nomcartrou": "Gatineau", "mus_nm_mun": "Gatineau" }, "geometry": { "type": "Point", "coordinates": [ -75.687416998859092, 45.47998700046579 ] } },
{ "type": "Feature", "properties": { "MUN_ID": "MU_310", "MRC_ID": "MRC_48", "nomcartrou": "Upton", "mus_nm_mun": "Upton" }, "geometry": { "type": "Point", "coordinates": [ -72.693516999467491, 45.649179001728655 ] } },
{ "type": "Feature", "properties": { "MUN_ID": "MU_766", "MRC_ID": "MRC_76", "nomcartrou": "Carillon", "mus_nm_mun": "Saint-André-d'Argenteuil" }, "geometry": { "type": "Point", "coordinates": [ -74.375972000546582, 45.567694001336569 ] } },
{ "type": "Feature", "properties": { "MUN_ID": "MU_1099", "MRC_ID": "MRC_30", "nomcartrou": "Saint-Samuel-Station", "mus_nm_mun": "Sainte-Cécile-de-Whitton" }, "geometry": { "type": "Point", "coordinates": [ -70.916955999911423, 45.711147001325038 ] } },
{ "type": "Feature", "properties": { "MUN_ID": "MU_401", "MRC_ID": "MRC_54", "nomcartrou": "Sainte-Rosalie", "mus_nm_mun": "Saint-Hyacinthe" }, "geometry": { "type": "Point", "coordinates": [ -72.898061999671484, 45.645114000879083 ] } },
{ "type": "Feature", "properties": { "MUN_ID": "MU_1262", "MRC_ID": "MRC_41", "nomcartrou": "Weedon", "mus_nm_mun": "Weedon" }, "geometry": { "type": "Point", "coordinates": [ -71.462989000041347, 45.699958000301351 ] } },
{ "type": "Feature", "properties": { "MUN_ID": "MU_1107", "MRC_ID": "MRC_30", "nomcartrou": "Stornoway", "mus_nm_mun": "Stornoway" }, "geometry": { "type": "Point", "coordinates": [ -71.157811000233622, 45.710313001579145 ] } },
{ "type": "Feature", "properties": { "MUN_ID": "MU_404", "MRC_ID": "MRC_54", "nomcartrou": "Saint-Liboire", "mus_nm_mun": "Saint-Liboire" }, "geometry": { "type": "Point", "coordinates": [ -72.759568000177808, 45.656096001373925 ] } },
{ "type": "Feature", "properties": { "MUN_ID": "MU_1103", "MRC_ID": "MRC_30", "nomcartrou": "Lac-Drolet", "mus_nm_mun": "Lac-Drolet" }, "geometry": { "type": "Point", "coordinates": [ -70.850008999690886, 45.719201001192602 ] } },
{ "type": "Feature", "properties": { "MUN_ID": "MU_401", "MRC_ID": "MRC_54", "nomcartrou": "Saint-Thomas-d'Aquin", "mus_nm_mun": "Saint-Hyacinthe" }, "geometry": { "type": "Point", "coordinates": [ -72.994270999678704, 45.64948700124895 ] } },
{ "type": "Feature", "properties": { "MUN_ID": "MU_1247", "MRC_ID": "MRC_40", "nomcartrou": "Saint-Georges-de-Windsor", "mus_nm_mun": "Saint-Georges-de-Windsor" }, "geometry": { "type": "Point", "coordinates": [ -71.843156999785549, 45.697584000791721 ] } },
{ "type": "Feature", "properties": { "MUN_ID": "MU_752", "MRC_ID": "MRC_73", "nomcartrou": "Boisbriand", "mus_nm_mun": "Boisbriand" }, "geometry": { "type": "Point", "coordinates": [ -73.838822000626052, 45.614351000523733 ] } },
{ "type": "Feature", "properties": { "MUN_ID": "MU_518", "MRC_ID": "MRC_66", "nomcartrou": "Montréal-Est", "mus_nm_mun": "Montréal-Est" }, "geometry": { "type": "Point", "coordinates": [ -73.494936999088338, 45.632313000247521 ] } },
{ "type": "Feature", "properties": { "MUN_ID": "MU_759", "MRC_ID": "MRC_74", "nomcartrou": "Saint-Hermas", "mus_nm_mun": "Mirabel" }, "geometry": { "type": "Point", "coordinates": [ -74.19155099922024, 45.604029001652194 ] } },
{ "type": "Feature", "properties": { "MUN_ID": "MU_454", "MRC_ID": "MRC_59", "nomcartrou": "Saint-Amable", "mus_nm_mun": "Saint-Amable" }, "geometry": { "type": "Point", "coordinates": [ -73.296077999592654, 45.65197800136896 ] } },
{ "type": "Feature", "properties": { "MUN_ID": "MU_866", "MRC_ID": "MRC_82", "nomcartrou": "Chelsea", "mus_nm_mun": "Chelsea" }, "geometry": { "type": "Point", "coordinates": [ -75.783491999165634, 45.504599001066381 ] } },
{ "type": "Feature", "properties": { "MUN_ID": "MU_1102", "MRC_ID": "MRC_30", "nomcartrou": "Saint-Ludger", "mus_nm_mun": "Saint-Ludger" }, "geometry": { "type": "Point", "coordinates": [ -70.692474000020681, 45.741882001101345 ] } },
{ "type": "Feature", "properties": { "MUN_ID": "MU_866", "MRC_ID": "MRC_82", "nomcartrou": "Old Chelsea", "mus_nm_mun": "Chelsea" }, "geometry": { "type": "Point", "coordinates": [ -75.811302000169007, 45.503039000697072 ] } },
{ "type": "Feature", "properties": { "MUN_ID": "MU_311", "MRC_ID": "MRC_48", "nomcartrou": "Saint-Théodore-d'Acton", "mus_nm_mun": "Saint-Théodore-d'Acton" }, "geometry": { "type": "Point", "coordinates": [ -72.586948999203941, 45.684947000388128 ] } },
{ "type": "Feature", "properties": { "MUN_ID": "MU_400", "MRC_ID": "MRC_54", "nomcartrou": "La Présentation", "mus_nm_mun": "La Présentation" }, "geometry": { "type": "Point", "coordinates": [ -73.051050998880157, 45.66565900114739 ] } },
{ "type": "Feature", "properties": { "MUN_ID": "MU_771", "MRC_ID": "MRC_76", "nomcartrou": "Cushing", "mus_nm_mun": "Brownsburg-Chatham" }, "geometry": { "type": "Point", "coordinates": [ -74.460228000511819, 45.593652999902098 ] } },
{ "type": "Feature", "properties": { "MUN_ID": "MU_1101", "MRC_ID": "MRC_30", "nomcartrou": "Saint-Robert-Bellarmin", "mus_nm_mun": "Saint-Robert-Bellarmin" }, "geometry": { "type": "Point", "coordinates": [ -70.586350000354074, 45.749654001270301 ] } },
{ "type": "Feature", "properties": { "MUN_ID": "MU_759", "MRC_ID": "MRC_74", "nomcartrou": "Saint-Augustin", "mus_nm_mun": "Mirabel" }, "geometry": { "type": "Point", "coordinates": [ -73.980063000509404, 45.624893001473581 ] } },
{ "type": "Feature", "properties": { "MUN_ID": "MU_771", "MRC_ID": "MRC_76", "nomcartrou": "Greece's Point", "mus_nm_mun": "Brownsburg-Chatham" }, "geometry": { "type": "Point", "coordinates": [ -74.509086999833897, 45.5971710014826 ] } },
{ "type": "Feature", "properties": { "MUN_ID": "MU_867", "MRC_ID": "MRC_82", "nomcartrou": "Breckenridge", "mus_nm_mun": "Pontiac" }, "geometry": { "type": "Point", "coordinates": [ -75.968245999592156, 45.502588000757775 ] } },
{ "type": "Feature", "properties": { "MUN_ID": "MU_755", "MRC_ID": "MRC_73", "nomcartrou": "Rosemère", "mus_nm_mun": "Rosemère" }, "geometry": { "type": "Point", "coordinates": [ -73.785473999432583, 45.641257999932144 ] } },
{ "type": "Feature", "properties": { "MUN_ID": "MU_753", "MRC_ID": "MRC_73", "nomcartrou": "Sainte-Thérèse", "mus_nm_mun": "Sainte-Thérèse" }, "geometry": { "type": "Point", "coordinates": [ -73.841584000473915, 45.639481001316227 ] } },
{ "type": "Feature", "properties": { "MUN_ID": "MU_862", "MRC_ID": "MRC_81", "nomcartrou": "Masson-Angers", "mus_nm_mun": "Gatineau" }, "geometry": { "type": "Point", "coordinates": [ -75.420942999879443, 45.545408001035838 ] } },
{ "type": "Feature", "properties": { "MUN_ID": "MU_444", "MRC_ID": "MRC_57", "nomcartrou": "Saint-Marc-sur-Richelieu", "mus_nm_mun": "Saint-Marc-sur-Richelieu" }, "geometry": { "type": "Point", "coordinates": [ -73.193856999554271, 45.676932001208165 ] } },
{ "type": "Feature", "properties": { "MUN_ID": "MU_315", "MRC_ID": "MRC_49", "nomcartrou": "Lefebvre", "mus_nm_mun": "Lefebvre" }, "geometry": { "type": "Point", "coordinates": [ -72.411236000184005, 45.711239001794034 ] } },
{ "type": "Feature", "properties": { "MUN_ID": "MU_1245", "MRC_ID": "MRC_40", "nomcartrou": "Wotton", "mus_nm_mun": "Wotton" }, "geometry": { "type": "Point", "coordinates": [ -71.807069000382569, 45.737763001125522 ] } },
{ "type": "Feature", "properties": { "MUN_ID": "MU_1276", "MRC_ID": "MRC_42", "nomcartrou": "Ulverton", "mus_nm_mun": "Ulverton" }, "geometry": { "type": "Point", "coordinates": [ -72.240195000235076, 45.725086001236569 ] } },
{ "type": "Feature", "properties": { "MUN_ID": "MU_771", "MRC_ID": "MRC_76", "nomcartrou": "Saint-Philippe", "mus_nm_mun": "Brownsburg-Chatham" }, "geometry": { "type": "Point", "coordinates": [ -74.42638299903436, 45.624552001252141 ] } },
{ "type": "Feature", "properties": { "MUN_ID": "MU_445", "MRC_ID": "MRC_57", "nomcartrou": "Saint-Charles-sur-Richelieu", "mus_nm_mun": "Saint-Charles-sur-Richelieu" }, "geometry": { "type": "Point", "coordinates": [ -73.186484000090374, 45.690802000789148 ] } },
{ "type": "Feature", "properties": { "MUN_ID": "MU_1262", "MRC_ID": "MRC_41", "nomcartrou": "Saint-Gérard", "mus_nm_mun": "Weedon" }, "geometry": { "type": "Point", "coordinates": [ -71.411979999445634, 45.758088001397425 ] } },
{ "type": "Feature", "properties": { "MUN_ID": "MU_757", "MRC_ID": "MRC_73", "nomcartrou": "Bois-des-Filion", "mus_nm_mun": "Bois-des-Filion" }, "geometry": { "type": "Point", "coordinates": [ -73.757240000702865, 45.667473000615551 ] } },
{ "type": "Feature", "properties": { "MUN_ID": "MU_756", "MRC_ID": "MRC_73", "nomcartrou": "Lorraine", "mus_nm_mun": "Lorraine" }, "geometry": { "type": "Point", "coordinates": [ -73.783008999336914, 45.666444000827113 ] } },
{ "type": "Feature", "properties": { "MUN_ID": "MU_1243", "MRC_ID": "MRC_40", "nomcartrou": "Ham-Sud", "mus_nm_mun": "Ham-Sud" }, "geometry": { "type": "Point", "coordinates": [ -71.602386000289655, 45.756827000885991 ] } },
{ "type": "Feature", "properties": { "MUN_ID": "MU_773", "MRC_ID": "MRC_76", "nomcartrou": "Grenville", "mus_nm_mun": "Grenville" }, "geometry": { "type": "Point", "coordinates": [ -74.594682999334935, 45.622129000334326 ] } },
{ "type": "Feature", "properties": { "MUN_ID": "MU_455", "MRC_ID": "MRC_59", "nomcartrou": "Varennes", "mus_nm_mun": "Varennes" }, "geometry": { "type": "Point", "coordinates": [ -73.432010999242294, 45.686931001483607 ] } },
{ "type": "Feature", "properties": { "MUN_ID": "MU_759", "MRC_ID": "MRC_74", "nomcartrou": "Sainte-Scholastique", "mus_nm_mun": "Mirabel" }, "geometry": { "type": "Point", "coordinates": [ -74.093030000233625, 45.653677000926898 ] } },
{ "type": "Feature", "properties": { "MUN_ID": "MU_867", "MRC_ID": "MRC_82", "nomcartrou": "Pontiac", "mus_nm_mun": "Pontiac" }, "geometry": { "type": "Point", "coordinates": [ -76.013499999602004, 45.530919001018894 ] } },
{ "type": "Feature", "properties": { "MUN_ID": "MU_865", "MRC_ID": "MRC_82", "nomcartrou": "Cantley", "mus_nm_mun": "Cantley" }, "geometry": { "type": "Point", "coordinates": [ -75.782575000532248, 45.549909001329041 ] } },
{ "type": "Feature", "properties": { "MUN_ID": "MU_1104", "MRC_ID": "MRC_30", "nomcartrou": "Saint-Sébastien", "mus_nm_mun": "Saint-Sébastien" }, "geometry": { "type": "Point", "coordinates": [ -70.968960999950852, 45.781462001233194 ] } },
{ "type": "Feature", "properties": { "MUN_ID": "MU_759", "MRC_ID": "MRC_74", "nomcartrou": "Mirabel (Sainte-Monique)", "mus_nm_mun": "Mirabel" }, "geometry": { "type": "Point", "coordinates": [ -73.999398000826119, 45.663242000160714 ] } },
{ "type": "Feature", "properties": { "MUN_ID": "MU_867", "MRC_ID": "MRC_82", "nomcartrou": "Quyon", "mus_nm_mun": "Pontiac" }, "geometry": { "type": "Point", "coordinates": [ -76.235825000883793, 45.520061000883835 ] } },
{ "type": "Feature", "properties": { "MUN_ID": "MU_754", "MRC_ID": "MRC_73", "nomcartrou": "Blainville", "mus_nm_mun": "Blainville" }, "geometry": { "type": "Point", "coordinates": [ -73.883602999241191, 45.675795001030252 ] } },
{ "type": "Feature", "properties": { "MUN_ID": "MU_1106", "MRC_ID": "MRC_30", "nomcartrou": "Saint-Romain", "mus_nm_mun": "Saint-Romain" }, "geometry": { "type": "Point", "coordinates": [ -71.092961999404793, 45.785395001332304 ] } },
{ "type": "Feature", "properties": { "MUN_ID": "MU_1108", "MRC_ID": "MRC_30", "nomcartrou": "Stratford", "mus_nm_mun": "Stratford" }, "geometry": { "type": "Point", "coordinates": [ -71.281002999835351, 45.780479001355772 ] } },
{ "type": "Feature", "properties": { "MUN_ID": "MU_406", "MRC_ID": "MRC_54", "nomcartrou": "Sainte-Hélène-de-Bagot", "mus_nm_mun": "Sainte-Hélène-de-Bagot" }, "geometry": { "type": "Point", "coordinates": [ -72.7358730013691, 45.731400001571927 ] } },
{ "type": "Feature", "properties": { "MUN_ID": "MU_843", "MRC_ID": "MRC_80", "nomcartrou": "Thurso", "mus_nm_mun": "Thurso" }, "geometry": { "type": "Point", "coordinates": [ -75.243488999354483, 45.596891000979461 ] } },
{ "type": "Feature", "properties": { "MUN_ID": "MU_312", "MRC_ID": "MRC_48", "nomcartrou": "Saint-Nazaire-d'Acton", "mus_nm_mun": "Saint-Nazaire-d'Acton" }, "geometry": { "type": "Point", "coordinates": [ -72.619923000389875, 45.737577001079799 ] } },
{ "type": "Feature", "properties": { "MUN_ID": "MU_842", "MRC_ID": "MRC_80", "nomcartrou": "Plaisance", "mus_nm_mun": "Plaisance" }, "geometry": { "type": "Point", "coordinates": [ -75.112900000595189, 45.606311000984299 ] } },
{ "type": "Feature", "properties": { "MUN_ID": "MU_862", "MRC_ID": "MRC_81", "nomcartrou": "Buckingham", "mus_nm_mun": "Gatineau" }, "geometry": { "type": "Point", "coordinates": [ -75.416791000539803, 45.587870001393959 ] } },
{ "type": "Feature", "properties": { "MUN_ID": "MU_844", "MRC_ID": "MRC_80", "nomcartrou": "Lochaber", "mus_nm_mun": "Lochaber" }, "geometry": { "type": "Point", "coordinates": [ -75.182129000824347, 45.603587000636473 ] } },
{ "type": "Feature", "properties": { "MUN_ID": "MU_767", "MRC_ID": "MRC_76", "nomcartrou": "Lachute", "mus_nm_mun": "Lachute" }, "geometry": { "type": "Point", "coordinates": [ -74.340076000244949, 45.655889001743915 ] } },
{ "type": "Feature", "properties": { "MUN_ID": "MU_515", "MRC_ID": "MRC_64", "nomcartrou": "Terrebonne", "mus_nm_mun": "Terrebonne" }, "geometry": { "type": "Point", "coordinates": [ -73.634523999671671, 45.694969000115336 ] } },
{ "type": "Feature", "properties": { "MUN_ID": "MU_894", "MRC_ID": "MRC_84", "nomcartrou": "Norway Bay", "mus_nm_mun": "Bristol" }, "geometry": { "type": "Point", "coordinates": [ -76.416250999626044, 45.5168159999442 ] } },
{ "type": "Feature", "properties": { "MUN_ID": "MU_841", "MRC_ID": "MRC_80", "nomcartrou": "Papineauville", "mus_nm_mun": "Papineauville" }, "geometry": { "type": "Point", "coordinates": [ -75.016843998899191, 45.617272001247414 ] } },
{ "type": "Feature", "properties": { "MUN_ID": "MU_408", "MRC_ID": "MRC_54", "nomcartrou": "Saint-Barnabé-Sud", "mus_nm_mun": "Saint-Barnabé-Sud" }, "geometry": { "type": "Point", "coordinates": [ -72.922421000007816, 45.729925000732493 ] } },
{ "type": "Feature", "properties": { "MUN_ID": "MU_772", "MRC_ID": "MRC_76", "nomcartrou": "Grenville-sur-la-Rouge", "mus_nm_mun": "Grenville-sur-la-Rouge" }, "geometry": { "type": "Point", "coordinates": [ -74.6069820006729, 45.643933001444616 ] } },
{ "type": "Feature", "properties": { "MUN_ID": "MU_515", "MRC_ID": "MRC_64", "nomcartrou": "Lachenaie", "mus_nm_mun": "Terrebonne" }, "geometry": { "type": "Point", "coordinates": [ -73.554458999528919, 45.7019100003725 ] } },
{ "type": "Feature", "properties": { "MUN_ID": "MU_863", "MRC_ID": "MRC_82", "nomcartrou": "L'Ange-Gardien", "mus_nm_mun": "L'Ange-Gardien" }, "geometry": { "type": "Point", "coordinates": [ -75.454161000361182, 45.590571999984597 ] } },
{ "type": "Feature", "properties": { "MUN_ID": "MU_405", "MRC_ID": "MRC_54", "nomcartrou": "Saint-Simon", "mus_nm_mun": "Saint-Simon" }, "geometry": { "type": "Point", "coordinates": [ -72.872411999707083, 45.734983001169979 ] } },
{ "type": "Feature", "properties": { "MUN_ID": "MU_1248", "MRC_ID": "MRC_40", "nomcartrou": "Val-des-Sources (Asbestos)", "mus_nm_mun": "Val-des-Sources" }, "geometry": { "type": "Point", "coordinates": [ -71.935128999087624, 45.773415001097952 ] } },
{ "type": "Feature", "properties": { "MUN_ID": "MU_772", "MRC_ID": "MRC_76", "nomcartrou": "Calumet", "mus_nm_mun": "Grenville-sur-la-Rouge" }, "geometry": { "type": "Point", "coordinates": [ -74.643458000145174, 45.648097000852466 ] } },
{ "type": "Feature", "properties": { "MUN_ID": "MU_316", "MRC_ID": "MRC_49", "nomcartrou": "L'Avenir", "mus_nm_mun": "L'Avenir" }, "geometry": { "type": "Point", "coordinates": [ -72.30495700083371, 45.763011001068307 ] } },
{ "type": "Feature", "properties": { "MUN_ID": "MU_867", "MRC_ID": "MRC_82", "nomcartrou": "Eardley", "mus_nm_mun": "Pontiac" }, "geometry": { "type": "Point", "coordinates": [ -76.099127999090015, 45.552029000694553 ] } },
{ "type": "Feature", "properties": { "MUN_ID": "MU_772", "MRC_ID": "MRC_76", "nomcartrou": "Pointe-au-Chêne", "mus_nm_mun": "Grenville-sur-la-Rouge" }, "geometry": { "type": "Point", "coordinates": [ -74.746242000204219, 45.644542001425762 ] } },
{ "type": "Feature", "properties": { "MUN_ID": "MU_318", "MRC_ID": "MRC_49", "nomcartrou": "Wickham", "mus_nm_mun": "Wickham" }, "geometry": { "type": "Point", "coordinates": [ -72.499198999743854, 45.759410001112592 ] } },
{ "type": "Feature", "properties": { "MUN_ID": "MU_894", "MRC_ID": "MRC_84", "nomcartrou": "Bristol", "mus_nm_mun": "Bristol" }, "geometry": { "type": "Point", "coordinates": [ -76.458028001129563, 45.531204001012966 ] } },
{ "type": "Feature", "properties": { "MUN_ID": "MU_459", "MRC_ID": "MRC_60", "nomcartrou": "Charlemagne", "mus_nm_mun": "Charlemagne" }, "geometry": { "type": "Point", "coordinates": [ -73.486174000555238, 45.721006000641786 ] } },
{ "type": "Feature", "properties": { "MUN_ID": "MU_836", "MRC_ID": "MRC_80", "nomcartrou": "Fassett", "mus_nm_mun": "Fassett" }, "geometry": { "type": "Point", "coordinates": [ -74.869106000057158, 45.644266001560808 ] } },
{ "type": "Feature", "properties": { "MUN_ID": "MU_1249", "MRC_ID": "MRC_40", "nomcartrou": "Danville", "mus_nm_mun": "Danville" }, "geometry": { "type": "Point", "coordinates": [ -72.014271999890795, 45.785279000205918 ] } },
{ "type": "Feature", "properties": { "MUN_ID": "MU_771", "MRC_ID": "MRC_76", "nomcartrou": "Brownsburg-Chatham", "mus_nm_mun": "Brownsburg-Chatham" }, "geometry": { "type": "Point", "coordinates": [ -74.404535998734417, 45.676464001819888 ] } },
{ "type": "Feature", "properties": { "MUN_ID": "MU_864", "MRC_ID": "MRC_82", "nomcartrou": "Perkins", "mus_nm_mun": "Val-des-Monts" }, "geometry": { "type": "Point", "coordinates": [ -75.618747000699898, 45.60006500087114 ] } },
{ "type": "Feature", "properties": { "MUN_ID": "MU_759", "MRC_ID": "MRC_74", "nomcartrou": "Saint-Janvier", "mus_nm_mun": "Mirabel" }, "geometry": { "type": "Point", "coordinates": [ -73.928456999542291, 45.704716001683671 ] } },
{ "type": "Feature", "properties": { "MUN_ID": "MU_837", "MRC_ID": "MRC_80", "nomcartrou": "Montebello", "mus_nm_mun": "Montebello" }, "geometry": { "type": "Point", "coordinates": [ -74.939790999364845, 45.650186001143354 ] } },
{ "type": "Feature", "properties": { "MUN_ID": "MU_1248", "MRC_ID": "MRC_40", "nomcartrou": "Trois-Lacs", "mus_nm_mun": "Val-des-Sources" }, "geometry": { "type": "Point", "coordinates": [ -71.882952999580596, 45.80069500094536 ] } },
{ "type": "Feature", "properties": { "MUN_ID": "MU_457", "MRC_ID": "MRC_59", "nomcartrou": "Calixa-Lavallée", "mus_nm_mun": "Calixa-Lavallée" }, "geometry": { "type": "Point", "coordinates": [ -73.281751999887419, 45.746067000833023 ] } },
{ "type": "Feature", "properties": { "MUN_ID": "MU_313", "MRC_ID": "MRC_49", "nomcartrou": "Saint-Félix-de-Kingsey", "mus_nm_mun": "Saint-Félix-de-Kingsey" }, "geometry": { "type": "Point", "coordinates": [ -72.190424000349751, 45.794349001042342 ] } },
{ "type": "Feature", "properties": { "MUN_ID": "MU_460", "MRC_ID": "MRC_60", "nomcartrou": "Repentigny", "mus_nm_mun": "Repentigny" }, "geometry": { "type": "Point", "coordinates": [ -73.450314000432726, 45.742270001154992 ] } },
{ "type": "Feature", "properties": { "MUN_ID": "MU_1105", "MRC_ID": "MRC_30", "nomcartrou": "Lambton", "mus_nm_mun": "Lambton" }, "geometry": { "type": "Point", "coordinates": [ -71.091403999995194, 45.836865000244948 ] } },
{ "type": "Feature", "properties": { "MUN_ID": "MU_1244", "MRC_ID": "MRC_40", "nomcartrou": "Saint-Adrien", "mus_nm_mun": "Saint-Adrien" }, "geometry": { "type": "Point", "coordinates": [ -71.721512999640908, 45.820476000877086 ] } },
{ "type": "Feature", "properties": { "MUN_ID": "MU_759", "MRC_ID": "MRC_74", "nomcartrou": "Saint-Canut", "mus_nm_mun": "Mirabel" }, "geometry": { "type": "Point", "coordinates": [ -74.082021999370951, 45.718902000747931 ] } },
{ "type": "Feature", "properties": { "MUN_ID": "MU_409", "MRC_ID": "MRC_54", "nomcartrou": "Saint-Jude", "mus_nm_mun": "Saint-Jude" }, "geometry": { "type": "Point", "coordinates": [ -72.988492999142011, 45.774321000659903 ] } },
{ "type": "Feature", "properties": { "MUN_ID": "MU_460", "MRC_ID": "MRC_60", "nomcartrou": "Le Gardeur", "mus_nm_mun": "Repentigny" }, "geometry": { "type": "Point", "coordinates": [ -73.471137999737522, 45.752653001162088 ] } },
{ "type": "Feature", "properties": { "MUN_ID": "MU_516", "MRC_ID": "MRC_64", "nomcartrou": "Mascouche", "mus_nm_mun": "Mascouche" }, "geometry": { "type": "Point", "coordinates": [ -73.601509999354704, 45.747170001236611 ] } },
{ "type": "Feature", "properties": { "MUN_ID": "MU_1109", "MRC_ID": "MRC_31", "nomcartrou": "Beaulac-Garthby", "mus_nm_mun": "Beaulac-Garthby" }, "geometry": { "type": "Point", "coordinates": [ -71.381208999411527, 45.835520001657613 ] } },
{ "type": "Feature", "properties": { "MUN_ID": "MU_866", "MRC_ID": "MRC_82", "nomcartrou": "Farm Point", "mus_nm_mun": "Chelsea" }, "geometry": { "type": "Point", "coordinates": [ -75.897330999199255, 45.609257001100367 ] } },
{ "type": "Feature", "properties": { "MUN_ID": "MU_1075", "MRC_ID": "MRC_29", "nomcartrou": "Saint-Gédéon-de-Beauce", "mus_nm_mun": "Saint-Gédéon-de-Beauce" }, "geometry": { "type": "Point", "coordinates": [ -70.634938000102025, 45.857016000637579 ] } },
{ "type": "Feature", "properties": { "MUN_ID": "MU_771", "MRC_ID": "MRC_76", "nomcartrou": "Dalesville", "mus_nm_mun": "Brownsburg-Chatham" }, "geometry": { "type": "Point", "coordinates": [ -74.404750000226045, 45.708876000969013 ] } },
{ "type": "Feature", "properties": { "MUN_ID": "MU_447", "MRC_ID": "MRC_57", "nomcartrou": "Saint-Antoine-sur-Richelieu", "mus_nm_mun": "Saint-Antoine-sur-Richelieu" }, "geometry": { "type": "Point", "coordinates": [ -73.171827999041412, 45.779234000215546 ] } },
{ "type": "Feature", "properties": { "MUN_ID": "MU_407", "MRC_ID": "MRC_54", "nomcartrou": "Saint-Hugues", "mus_nm_mun": "Saint-Hugues" }, "geometry": { "type": "Point", "coordinates": [ -72.859867999585674, 45.794757001088058 ] } },
{ "type": "Feature", "properties": { "MUN_ID": "MU_327", "MRC_ID": "MRC_49", "nomcartrou": "Saint-Eugène", "mus_nm_mun": "Saint-Eugène" }, "geometry": { "type": "Point", "coordinates": [ -72.698894999158185, 45.805357000952064 ] } },